,ID,BBL_MapPLU,EnergyStar,LetterGrad,YearBuilt,OwnerName,NumBldgs,NumFloors,UnitsRes,ResArea,Latitude,Longitude,BBL,YearAlter1,YearAlter2,boro_cd,shape_area,shape_leng,geometry,sqft_per_unit
0,233,1000930034,100,A,1973,"ROYAL CHARTER PROPERTIES, INC.",1,17.0,90,79079,40.7096605,-74.0051832,1000930034.0,0,0,101,41686683.0872,69053.5448902,POINT (-74.0051832 40.7096605),878.6555555555556
1,235,1000950027,52,D,1981,ST MARGARET'S HOUSE,1,20.0,251,208576,40.7082662,-74.0041191,1000950027.0,0,0,101,41686683.0872,69053.5448902,POINT (-74.0041191 40.7082662),830.9800796812749
2,244,1001067502,66,C,1882,THE BINDERY CONDO,1,5.0,48,37646,40.7089607,-74.0018395,1001067502.0,0,0,101,41686683.0872,69053.5448902,POINT (-74.0018395 40.7089607),784.2916666666666
3,32,1000160205,32,D,1998,"BROOKDALE DEVELOPMENT, LLC",1,14.0,218,239185,40.7175207,-74.014545,1000160205.0,0,0,101,41686683.0872,69053.5448902,POINT (-74.014545 40.7175207),1097.1788990825687
4,415,1002177501,90,A,1853,UNAVAILABLE OWNER,1,11.0,33,91497,40.7220829,-74.0111224,1002177501.0,2001,2001,101,41686683.0872,69053.5448902,POINT (-74.0111224 40.7220829),2772.6363636363635
5,346,1001887505,1,D,1905,UNAVAILABLE OWNER,1,7.0,25,70758,40.7204746,-74.0092931,1001887505.0,1985,2007,101,41686683.0872,69053.5448902,POINT (-74.0092931 40.7204746),2830.32
6,336,1001797506,48,D,1915,UNAVAILABLE OWNER,1,8.0,30,77625,40.7184518,-74.0079977,1001797506.0,1999,0,101,41686683.0872,69053.5448902,POINT (-74.0079977 40.7184518),2587.5
7,408,1002127505,69,C,1900,UNAVAILABLE OWNER,1,10.0,27,97000,40.7206258,-74.006187,1002127505.0,0,0,101,41686683.0872,69053.5448902,POINT (-74.006187 40.7206258),3592.5925925925926
8,416,1002177503,86,A,1906,EL-AD 250 WEST LLC,1,12.0,103,225630,40.7218331,-74.011162,1002177503.0,0,0,101,41686683.0872,69053.5448902,POINT (-74.011162 40.7218331),2190.5825242718447
9,418,1002180002,99,A,1900,LAIGHT COOP CORP,1,10.0,10,28016,40.7223547,-74.010354,1002180002.0,1984,2008,101,41686683.0872,69053.5448902,POINT (-74.010354 40.7223547),2801.6
10,423,1002197505,66,C,2008,UNAVAILABLE OWNER,1,9.0,7,27210,40.7224646,-74.0087702,1002197505.0,0,0,101,41686683.0872,69053.5448902,POINT (-74.0087702 40.7224646),3887.1428571428573
11,429,1002227502,21,D,1920,UNAVAILABLE OWNER,1,7.0,27,70622,40.723085,-74.008424,1002227502.0,1999,1999,101,41686683.0872,69053.5448902,POINT (-74.008424 40.723085),2615.6296296296296
12,430,1002227503,79,B,1905,UNAVAILABLE OWNER,1,0.0,53,171577,40.7230602,-74.0091239,1002227503.0,2010,0,101,41686683.0872,69053.5448902,POINT (-74.0091239 40.7230602),3237.301886792453
13,421,1002187504,55,C,2010,THE FAIRCHILD & FOSTER CONDOMINIUMS,1,9.0,20,45838,40.7225908,-74.0102458,1002187504.0,0,0,101,41686683.0872,69053.5448902,POINT (-74.0102458 40.7225908),2291.9
14,1160,1005950041,61,C,1900,474 GREENWICH CORP,1,6.0,13,25159,40.7244655,-74.0096219,1005950041.0,0,0,101,41686683.0872,69053.5448902,POINT (-74.0096219 40.7244655),1935.3076923076924
15,303,1001610001,36,D,1965,CHATHAM TOWERS INC,3,25.0,250,306862,40.7136515,-73.9998774,1001610001.0,0,0,103,46879983.8372,30468.3021666,POINT (-73.9998774 40.7136515),1227.448
16,474,1002480070,21,D,1987,TWO  BRIDGES SENIOR APARTMENTS LP,1,10.0,109,83904,40.710802,-73.9901925,1002480070.0,0,0,103,46879983.8372,30468.3021666,POINT (-73.9901925 40.710802),769.7614678899082
17,479,1002560014,8,D,1965,NYC HOUSING AUTHORITY,1,16.0,150,101786,40.7116528,-73.9885872,1002560014.0,0,0,103,46879983.8372,30468.3021666,POINT (-73.9885872 40.7116528),678.5733333333334
18,480,1002580001,8,D,1955,NYC HOUSING AUTHORITY,4,16.0,492,431685,40.712303,-73.9859106,1002580001.0,0,0,103,46879983.8372,30468.3021666,POINT (-73.9859106 40.712303),877.4085365853658
19,485,1002630001,17,D,1940,NYC HOUSING AUTHORITY,4,6.0,236,158000,40.7129362,-73.9802617,1002630001.0,0,0,103,46879983.8372,30468.3021666,POINT (-73.9802617 40.7129362),669.4915254237288
20,486,1002630008,34,D,1955,EAST RIVER HOUSING CORP,2,20.0,833,923000,40.7129497,-73.9789847,1002630008.0,0,0,103,46879983.8372,30468.3021666,POINT (-73.9789847 40.7129497),1108.0432172869148
21,491,1002670037,89,A,1908,MADISON ST (371) RLTY CP,1,6.0,117,101579,40.7137186,-73.9814374,1002670037.0,2000,2008,103,46879983.8372,30468.3021666,POINT (-73.9814374 40.7137186),868.1965811965812
22,526,1003090022,36,D,2000,SRS LUDLOW LLC.,1,10.0,35,26300,40.7165633,-73.9904261,1003090022.0,0,0,103,46879983.8372,30468.3021666,POINT (-73.9904261 40.7165633),751.4285714285714
23,469,1002440019,19,D,1964,GOUVENEUR GARDENS HSG. CORP.,1,21.0,124,124600,40.7110018,-73.9842733,1002440019.0,0,0,103,46879983.8372,30468.3021666,POINT (-73.9842733 40.7110018),1004.8387096774194
24,481,1002590001,19,D,1964,GOUVENEUR GARDENS HSG. CORP.,1,21.0,124,126150,40.7115919,-73.9842226,1002590001.0,0,0,103,46879983.8372,30468.3021666,POINT (-73.9842226 40.7115919),1017.3387096774194
25,532,1003230001,55,C,1962,NYC HOUSING AUTHORITY,20,14.0,2391,2948300,40.7174344,-73.9778109,1003230001.0,0,0,103,46879983.8372,30468.3021666,POINT (-73.9778109 40.7174344),1233.0823923044752
26,539,1003360005,70,B,1982,"UJC ORENSTEIN PRESERVATION HDFC, INC.",1,11.0,128,98052,40.7158187,-73.9833018,1003360005.0,0,0,103,46879983.8372,30468.3021666,POINT (-73.9833018 40.7158187),766.03125
27,549,1003437501,87,A,1930,UNAVAILABLE OWNER,1,6.0,46,45289,40.7175644,-73.9836332,1003437501.0,2006,0,103,46879983.8372,30468.3021666,POINT (-73.9836332 40.7175644),984.5434782608696
28,587,1003720016,0,F,2005,THE SECOND HENRY STR,1,6.0,53,29940,40.7211787,-73.98005,1003720016.0,0,0,103,46879983.8372,30468.3021666,POINT (-73.98005 40.7211787),564.9056603773585
29,596,1003740025,22,D,2004,ISLA NENA HOUSING DEVELOPMENT FUND,2,7.0,48,49792,40.7219963,-73.9782098,1003740025.0,0,0,103,46879983.8372,30468.3021666,POINT (-73.9782098 40.7219963),1037.3333333333333
30,601,1003760058,72,B,2004,GRAND STREET SETTLEMENT SENIOR HOUSING D EVELOPMENT,1,8.0,78,65526,40.7233852,-73.9784619,1003760058.0,0,0,103,46879983.8372,30468.3021666,POINT (-73.9784619 40.7233852),840.0769230769231
31,604,1003770030,85,A,2000,8TH ST. EQUITIES,3,7.0,38,28906,40.7237417,-73.9767373,1003770030.0,2013,0,103,46879983.8372,30468.3021666,POINT (-73.9767373 40.7237417),760.6842105263158
32,629,1003920027,53,D,1900,EAST VILLAGE I HOUSING DEVELOPMENT FUNDC ORPORATION,1,6.0,45,49799,40.7259213,-73.9782302,1003920027.0,1988,0,103,46879983.8372,30468.3021666,POINT (-73.9782302 40.7259213),1106.6444444444444
33,646,1003970029,100,A,1900,LESMHA L P,1,6.0,30,33336,40.7220137,-73.9840398,1003970029.0,1992,0,103,46879983.8372,30468.3021666,POINT (-73.9840398 40.7220137),1111.2
34,468,1002430056,19,D,1962,UNAVAILABLE OWNER,2,21.0,211,251500,40.7111743,-73.9820296,1002430056.0,0,0,103,46879983.8372,30468.3021666,POINT (-73.9820296 40.7111743),1191.9431279620853
35,663,1004050001,50,D,1998,ALLIANCE APARTMENTSHOUSING DEVELOPMANT F UND CO IN,1,7.0,46,40376,40.7285211,-73.9813755,1004050001.0,0,0,103,46879983.8372,30468.3021666,POINT (-73.9813755 40.7285211),877.7391304347826
36,482,1002590071,19,D,1964,GOUVERNEUR GARDEN HOUSING CORP,1,21.0,145,287175,40.712698,-73.9843883,1002590071.0,0,0,103,46879983.8372,30468.3021666,POINT (-73.9843883 40.712698),1980.5172413793102
37,490,1002670024,17,D,1940,NYC HOUSING AUTHORITY,2,6.0,200,79000,40.7137243,-73.9824618,1002670024.0,0,0,103,46879983.8372,30468.3021666,POINT (-73.9824618 40.7137243),395.0
38,483,1002600001,17,D,1940,NYC HOUSING AUTHORITY,10,6.0,813,513000,40.7123383,-73.9828734,1002600001.0,1986,0,103,46879983.8372,30468.3021666,POINT (-73.9828734 40.7123383),630.9963099630996
39,667,1004070047,0,F,2002,525 EAST 13 LLC,1,8.0,46,30893,40.7294183,-73.9795424,1004070047.0,0,0,103,46879983.8372,30468.3021666,POINT (-73.9795424 40.7294183),671.5869565217391
40,523,1003070001,22,D,1973,NYC HOUSING AUTHORITY,2,14.0,104,109269,40.7167172,-73.9922694,1003070001.0,0,0,103,46879983.8372,30468.3021666,POINT (-73.9922694 40.7167172),1050.6634615384614
41,684,1004170001,9,D,1970,NYC HOUSING AUTHORITY,1,17.0,149,136000,40.7222312,-73.9894909,1004170001.0,0,0,103,46879983.8372,30468.3021666,POINT (-73.9894909 40.7222312),912.751677852349
42,689,1004210044,27,D,1993,NYSD HOUSING DVLP ETC,1,6.0,40,38880,40.7214902,-73.9909413,1004210044.0,0,0,103,46879983.8372,30468.3021666,POINT (-73.9909413 40.7214902),972.0
43,558,1003450058,66,C,2010,PITT STREET L.P.,1,12.0,263,98000,40.7204516,-73.9817602,1003450058.0,0,0,103,46879983.8372,30468.3021666,POINT (-73.9817602 40.7204516),372.62357414448667
44,564,1003470080,13,D,1971,NYC HOUSING AUTHORITY,2,23.0,181,180090,40.716829,-73.9850114,1003470080.0,0,0,103,46879983.8372,30468.3021666,POINT (-73.9850114 40.716829),994.9723756906077
45,533,1003250001,0,F,1920,NYC HOUSING AUTHORITY,1,6.0,36,77910,40.7184085,-73.9764181,1003250001.0,0,0,103,46879983.8372,30468.3021666,POINT (-73.9764181 40.7184085),2164.1666666666665
46,548,1003430050,57,C,1906,K DEW REALTY CORP,1,5.0,71,99911,40.7182478,-73.9830739,1003430050.0,1997,0,103,46879983.8372,30468.3021666,POINT (-73.9830739 40.7182478),1407.1971830985915
47,557,1003450048,83,B,1983,LP SOLUTIONS LLC,1,6.0,172,170100,40.7201031,-73.9821751,1003450048.0,0,0,103,46879983.8372,30468.3021666,POINT (-73.9821751 40.7201031),988.953488372093
48,579,1003537504,75,B,2014,UNAVAILABLE OWNER,1,12.0,38,37656,40.718638,-73.9870276,1003537504.0,0,0,103,46879983.8372,30468.3021666,POINT (-73.9870276 40.718638),990.9473684210526
49,582,1003560001,55,C,1950,NYC HOUSING AUTHORITY,18,14.0,1861,1658649,40.7206894,-73.9763884,1003560001.0,0,0,103,46879983.8372,30468.3021666,POINT (-73.9763884 40.7206894),891.2675980655562
50,585,1003670001,55,C,1950,NYC HOUSING AUTHORITY,8,14.0,743,610785,40.7254921,-73.9735654,1003670001.0,0,0,103,46879983.8372,30468.3021666,POINT (-73.9735654 40.7254921),822.0524899057873
51,567,1003480064,0,F,2018,91/93/95 HIGHGATE LLC,1,8.0,44,32998,40.7183441,-73.984773,1003480064.0,2018,0,103,46879983.8372,30468.3021666,POINT (-73.984773 40.7183441),749.9545454545455
52,586,1003720012,0,F,1900,"TWO BUILDINGS TENANTS UNITED HDFC, INC.",1,6.0,18,26780,40.721283,-73.9802917,1003720012.0,1992,0,103,46879983.8372,30468.3021666,POINT (-73.9802917 40.721283),1487.7777777777778
53,572,1003507503,85,A,2017,287 LES JV LLC,1,11.0,729,26257,40.7212672,-73.9842348,1003507503.0,2016,0,103,46879983.8372,30468.3021666,POINT (-73.9842348 40.7212672),36.01783264746228
54,597,1003740043,41,D,2000,"351 EAST 4TH STREET,   .",1,8.0,33,27226,40.7216587,-73.9781378,1003740043.0,0,0,103,46879983.8372,30468.3021666,POINT (-73.9781378 40.7216587),825.030303030303
55,589,1003720026,42,D,2007,POSITIVELY 3RD STREET HDFC,1,8.0,53,46162,40.7208299,-73.9792167,1003720026.0,0,0,103,46879983.8372,30468.3021666,POINT (-73.9792167 40.7208299),870.9811320754717
56,594,1003730051,95,A,2003,EAST THIRD STREET HOUSING DEVELOPMENT FU ND CO. INC,1,6.0,38,41244,40.7213267,-73.9792166,1003730051.0,0,0,103,46879983.8372,30468.3021666,POINT (-73.9792166 40.7213267),1085.3684210526317
57,609,1003790053,55,C,2009,DONA PETRA SANTIAGO APT HSG DEV FD,1,8.0,57,44876,40.7250702,-73.9769172,1003790053.0,0,0,103,46879983.8372,30468.3021666,POINT (-73.9769172 40.7250702),787.2982456140351
58,598,1003750001,36,D,1988,NYC HOUSING AUTHORITY,1,3.0,76,73392,40.722968,-73.9787362,1003750001.0,0,0,103,46879983.8372,30468.3021666,POINT (-73.9787362 40.722968),965.6842105263158
59,544,1003410070,12,D,1972,GRAND ST GUILD EAST HDFC INC,4,26.0,200,178320,40.7161977,-73.9848889,1003410070.0,2011,2011,103,46879983.8372,30468.3021666,POINT (-73.9848889 40.7161977),891.6
60,620,1003870157,83,B,1900,MARBEC REALTY LLC,1,6.0,40,25200,40.7236656,-73.9810089,1003870157.0,1986,0,103,46879983.8372,30468.3021666,POINT (-73.9810089 40.7236656),630.0
61,621,1003890011,0,F,1998,P S 71 ASSOCIATES LLC,2,7.0,174,96000,40.7245521,-73.9808499,1003890011.0,0,0,103,46879983.8372,30468.3021666,POINT (-73.9808499 40.7245521),551.7241379310345
62,550,1003440013,96,A,1932,193-195 STANTON LLC,1,6.0,61,47910,40.7196613,-73.9833225,1003440013.0,0,0,103,46879983.8372,30468.3021666,POINT (-73.9833225 40.7196613),785.4098360655738
63,561,1003460001,0,F,1982,"THE CHINATOWN PLANNING COUNCIL HDFC, INC . NOMINEE",1,14.0,156,137909,40.7167113,-73.9879154,1003460001.0,2014,0,103,46879983.8372,30468.3021666,POINT (-73.9879154 40.7167113),884.0320512820513
64,556,1003450020,41,D,1940,"SIDE KICKS RIDGE ASSOCIATES,",1,5.0,56,35045,40.7205011,-73.9826909,1003450020.0,0,0,103,46879983.8372,30468.3021666,POINT (-73.9826909 40.7205011),625.8035714285714
65,610,1003820100,51,D,1950,VILLAGE EAST TOWERS INC.,5,10.0,439,553660,40.7260856,-73.9764731,1003820100.0,0,0,103,46879983.8372,30468.3021666,POINT (-73.9764731 40.7260856),1261.1845102505695
66,628,1003920017,28,D,1900,EAST VILLAGE I HOUSING DEVELOPMENT FUNDC ORPORATION,1,5.0,44,46700,40.7262041,-73.9789012,1003920017.0,1988,0,103,46879983.8372,30468.3021666,POINT (-73.9789012 40.7262041),1061.3636363636363
67,613,1003850014,70,B,2002,"222 E. 3RD STREET,",1,8.0,61,49923,40.7221809,-73.9824127,1003850014.0,2010,0,103,46879983.8372,30468.3021666,POINT (-73.9824127 40.7221809),818.4098360655738
68,753,1004620035,82,B,1996,225 EAST 6TH LLC,1,6.0,86,91680,40.7279046,-73.9891869,1004620035.0,0,0,103,46879983.8372,30468.3021666,POINT (-73.9891869 40.7279046),1066.046511627907
69,630,1003920048,70,B,1900,EAST VILLAGE II HOUSING DEVELOPMENT FUND  CORP,1,6.0,35,43871,40.7259571,-73.9790275,1003920048.0,1988,0,103,46879983.8372,30468.3021666,POINT (-73.9790275 40.7259571),1253.4571428571428
70,639,1003950009,13,D,1979,NYCHA TRIBOROUGH PRESERVATION HDFC,1,10.0,93,127950,40.7278425,-73.9776848,1003950009.0,0,0,103,46879983.8372,30468.3021666,POINT (-73.9776848 40.7278425),1375.8064516129032
71,640,1003950012,6,D,1973,TANYA TOWERS,1,10.0,138,100860,40.7281417,-73.9777063,1003950012.0,0,0,103,46879983.8372,30468.3021666,POINT (-73.9777063 40.7281417),730.8695652173913
72,641,1003950022,1,D,1979,NYCHA TRIBOROUGH PRESERVATION HDFC,1,23.0,176,149253,40.7278259,-73.9768297,1003950022.0,1989,0,103,46879983.8372,30468.3021666,POINT (-73.9768297 40.7278259),848.0284090909091
73,570,1003500069,54,D,2015,155 LES LLC,1,7.0,37,31455,40.7205946,-73.983618,1003500069.0,2013,0,103,46879983.8372,30468.3021666,POINT (-73.983618 40.7205946),850.1351351351351
74,634,1003930025,99,A,1985,SKY EAST (DE) LLC,1,7.0,30,27362,40.7266047,-73.9779883,1003930025.0,2005,0,103,46879983.8372,30468.3021666,POINT (-73.9779883 40.7266047),912.0666666666667
75,635,1003930056,41,D,1920,EAST VILLAGE I HOUSING DEVELOPMENT FUNDC ORPORATION,1,6.0,33,38520,40.7267366,-73.9790309,1003930056.0,1981,0,103,46879983.8372,30468.3021666,POINT (-73.9790309 40.7267366),1167.2727272727273
76,656,1003990044,92,A,1950,"EAST VILLAGE APARTMENTS, LLC",1,6.0,43,35550,40.7232076,-73.9836679,1003990044.0,1988,0,103,46879983.8372,30468.3021666,POINT (-73.9836679 40.7232076),826.7441860465116
77,584,1003620010,55,C,1950,NYC HOUSING AUTHORITY,6,14.0,461,380833,40.7238538,-73.9747494,1003620010.0,0,0,103,46879983.8372,30468.3021666,POINT (-73.9747494 40.7238538),826.1019522776572
78,590,1003720031,95,A,2012,"318 EAST ASSOCIATES, LLC",1,7.0,33,27496,40.7206927,-73.9789246,1003720031.0,0,0,103,46879983.8372,30468.3021666,POINT (-73.9789246 40.7206927),833.2121212121212
79,651,1003980055,71,B,1900,LESPMHA HOUSING DEVELOPMENT FUND COPORAT ION,2,5.0,25,25625,40.722851,-73.9848116,1003980055.0,1993,0,103,46879983.8372,30468.3021666,POINT (-73.9848116 40.722851),1025.0
80,599,1003750045,36,D,1989,NYC HOUSING AUTHORITY,1,3.0,50,39260,40.7224272,-73.9780762,1003750045.0,0,0,103,46879983.8372,30468.3021666,POINT (-73.9780762 40.7224272),785.2
81,652,1003987501,89,A,1920,178-184 EAST 2ND ST CONDO ASSOC INC,2,6.0,41,27040,40.7226395,-73.9843138,1003987501.0,1986,0,103,46879983.8372,30468.3021666,POINT (-73.9843138 40.7226395),659.5121951219512
82,593,1003730023,35,D,1900,LES COALITION HOUSING DEVELOPMENT FUND C ORPORATION,1,6.0,28,27042,40.721431,-73.9787295,1003730023.0,1996,0,103,46879983.8372,30468.3021666,POINT (-73.9787295 40.721431),965.7857142857143
83,664,1004050017,85,A,1930,EAST-VILLE REALTY DE LLC,1,7.0,41,31500,40.7284469,-73.980405,1004050017.0,1988,0,103,46879983.8372,30468.3021666,POINT (-73.980405 40.7284469),768.2926829268292
84,603,1003770026,12,D,1900,NEIGHBORHOOD RESTORE HDFC,1,6.0,36,30018,40.7238378,-73.9769718,1003770026.0,1988,0,103,46879983.8372,30468.3021666,POINT (-73.9769718 40.7238378),833.8333333333334
85,618,1003860033,8,D,1973,NYC HOUSING AUTHORITY,1,8.0,108,132308,40.7222246,-73.9810237,1003860033.0,0,0,103,46879983.8372,30468.3021666,POINT (-73.9810237 40.7222246),1225.0740740740741
86,619,1003870020,36,D,1988,NYC HOUSING AUTHORITY,1,3.0,48,32946,40.7230892,-73.9807818,1003870020.0,0,0,103,46879983.8372,30468.3021666,POINT (-73.9807818 40.7230892),686.375
87,617,1003860015,66,C,1992,258 EAST 4 STREET L P,1,6.0,51,43902,40.722716,-73.9817704,1003860015.0,0,0,103,46879983.8372,30468.3021666,POINT (-73.9817704 40.722716),860.8235294117648
88,625,1003900024,39,D,1900,8TH AND C HOUSING DEVELOPMENT FUND CORPO RATION,2,6.0,30,29232,40.7247769,-73.9792011,1003900024.0,1994,0,103,46879983.8372,30468.3021666,POINT (-73.9792011 40.7247769),974.4
89,688,1004207501,1,D,2005,UNAVAILABLE OWNER,1,16.0,55,50737,40.7200218,-73.9916594,1004207501.0,0,0,103,46879983.8372,30468.3021666,POINT (-73.9916594 40.7200218),922.4909090909091
90,645,1003970022,0,F,1910,COALITION PLAZA LP,2,6.0,50,26208,40.7222169,-73.9845123,1003970022.0,0,0,103,46879983.8372,30468.3021666,POINT (-73.9845123 40.7222169),524.16
91,648,1003980008,93,A,1940,156-168 EAST 3RD STREET OWNERS INC,1,6.0,61,55947,40.7231858,-73.9847827,1003980008.0,1987,0,103,46879983.8372,30468.3021666,POINT (-73.9847827 40.7231858),917.1639344262295
92,633,1003930014,35,D,1900,EAST VILLAGE I HOUSING DEVELOPMENT FUNDC ORPORATION,3,6.0,28,30750,40.7269699,-73.9788576,1003930014.0,1988,0,103,46879983.8372,30468.3021666,POINT (-73.9788576 40.7269699),1098.2142857142858
93,660,1004020011,91,A,1925,JRC REALTY,1,5.0,79,41600,40.7256504,-73.9831442,1004020011.0,1963,2010,103,46879983.8372,30468.3021666,POINT (-73.9831442 40.7256504),526.5822784810126
94,644,1003970012,1,D,1920,157 EAST 2ND ST HDFC,1,5.0,40,27500,40.7225381,-73.9852807,1003970012.0,1988,0,103,46879983.8372,30468.3021666,POINT (-73.9852807 40.7225381),687.5
95,707,1004320001,82,B,1962,VILLAGE VIEW HOUSING CORP,5,21.0,877,780062,40.7253488,-73.9855543,1004320001.0,0,0,103,46879983.8372,30468.3021666,POINT (-73.9855543 40.7253488),889.466362599772
96,661,1004020015,91,A,1925,JRC REALTY,1,5.0,79,36705,40.7255131,-73.9828303,1004020015.0,2009,0,103,46879983.8372,30468.3021666,POINT (-73.9828303 40.7255131),464.62025316455697
97,698,1004270002,81,B,1900,10 STANTON OWNERS LLC,1,9.0,146,167453,40.7228078,-73.9922615,1004270002.0,0,0,103,46879983.8372,30468.3021666,POINT (-73.9922615 40.7228078),1146.9383561643835
98,710,1004360044,78,B,1920,JAGUAR HOLDINGS 1 LLC,1,5.0,48,25610,40.7272919,-73.9840313,1004360044.0,1972,1983,103,46879983.8372,30468.3021666,POINT (-73.9840313 40.7272919),533.5416666666666
99,703,1004300001,82,B,1964,VILLAGE VIEW HOUSING CORP,1,16.0,156,147730,40.7238668,-73.98694,1004300001.0,0,0,103,46879983.8372,30468.3021666,POINT (-73.98694 40.7238668),946.9871794871794
100,705,1004310001,82,B,1964,VILLAGE VIEW HOUSING CORP,1,21.0,203,194800,40.7246792,-73.9867883,1004310001.0,0,0,103,46879983.8372,30468.3021666,POINT (-73.9867883 40.7246792),959.6059113300493
101,713,1004407502,5,D,1900,UNAVAILABLE OWNER,1,5.0,27,26408,40.7300502,-73.9828147,1004407502.0,2000,0,103,46879983.8372,30468.3021666,POINT (-73.9828147 40.7300502),978.074074074074
102,718,1004430020,59,C,1899,67 EAST 2ND STREET INC.,1,6.0,49,26328,40.7241607,-73.9892489,1004430020.0,1985,0,103,46879983.8372,30468.3021666,POINT (-73.9892489 40.7241607),537.3061224489796
103,724,1004450045,34,D,2003,81 EAST 3 STREET REALTY LLC,1,13.0,45,36047,40.7250993,-73.9881592,1004450045.0,0,0,103,46879983.8372,30468.3021666,POINT (-73.9881592 40.7250993),801.0444444444445
104,683,1004160001,64,C,1986,NYC HOUSING AUTHORITY,2,4.0,54,60640,40.7214188,-73.98996,1004160001.0,0,0,103,46879983.8372,30468.3021666,POINT (-73.98996 40.7214188),1122.962962962963
105,1011,1005587503,15,D,1988,ZACHARY CONDOMINIUM,1,5.0,44,60410,40.7325678,-73.9886269,1005587503.0,0,0,103,46879983.8372,30468.3021666,POINT (-73.9886269 40.7325678),1372.9545454545455
106,719,1004430056,0,F,1920,FIRST GARDEN CORPORATION,2,5.0,13,41236,40.7242733,-73.9899055,1004430056.0,1995,2004,103,46879983.8372,30468.3021666,POINT (-73.9899055 40.7242733),3172.0
107,686,1004200062,64,C,1988,NYC HOUSING AUTHORITY,1,9.0,72,61380,40.7203264,-73.9911399,1004200062.0,0,0,103,46879983.8372,30468.3021666,POINT (-73.9911399 40.7203264),852.5
108,731,1004520054,67,C,1920,205 E 10TH ST OWNERS,1,6.0,30,25818,40.7297569,-73.9861198,1004520054.0,0,0,103,46879983.8372,30468.3021666,POINT (-73.9861198 40.7297569),860.6
109,700,1004277507,0,F,2014,UNAVAILABLE OWNER,1,28.0,11,29013,40.7230246,-73.9919837,1004277507.0,0,0,103,46879983.8372,30468.3021666,POINT (-73.9919837 40.7230246),2637.5454545454545
110,732,1004530011,96,A,1940,"HIGHMOUNT ASSOCIATES, LLC",2,5.0,89,101800,40.7304046,-73.9853331,1004530011.0,1986,0,103,46879983.8372,30468.3021666,POINT (-73.9853331 40.7304046),1143.8202247191011
111,733,1004537501,48,D,2008,UNAVAILABLE OWNER,1,8.0,36,39174,40.730174,-73.9852862,1004537501.0,2008,0,103,46879983.8372,30468.3021666,POINT (-73.9852862 40.730174),1088.1666666666667
112,746,1004600001,74,B,1985,COOPER SQUARE SENIOR HOUSING DEVELOPMENT  FUND,1,14.0,151,122689,40.7272844,-73.9910596,1004600001.0,0,0,103,46879983.8372,30468.3021666,POINT (-73.9910596 40.7272844),812.5099337748344
113,739,1004570020,58,C,1900,SLOYER-FURMAN INC,1,6.0,42,27600,40.72502,-73.9910887,1004570020.0,1984,0,103,46879983.8372,30468.3021666,POINT (-73.9910887 40.72502),657.1428571428571
114,743,1004580006,1,D,2003,WOODCUTTERS REALTY CORP.,1,16.0,3,6764,40.7260218,-73.9914746,1004580006.0,0,0,103,46879983.8372,30468.3021666,POINT (-73.9914746 40.7260218),2254.6666666666665
115,758,1004660048,0,F,1870,111 EAST 10TH ST INC,6,3.0,56,27111,40.7305339,-73.9880572,1004660048.0,1985,0,103,46879983.8372,30468.3021666,POINT (-73.9880572 40.7305339),484.125
116,768,1004690049,0,F,2008,VRBNIK REALTY LLC,1,8.0,28,30400,40.7323563,-73.9865017,1004690049.0,0,0,103,46879983.8372,30468.3021666,POINT (-73.9865017 40.7323563),1085.7142857142858
117,747,1004600029,0,F,1912,236 E 5 STREET LLC,1,6.0,30,25002,40.7268781,-73.9897572,1004600029.0,1989,0,103,46879983.8372,30468.3021666,POINT (-73.9897572 40.7268781),833.4
118,996,1005560015,1,D,1900,UNION SQUARE APARTMENTS LLC,1,6.0,107,61612,40.7311791,-73.989605,1005560015.0,1987,0,103,46879983.8372,30468.3021666,POINT (-73.989605 40.7311791),575.8130841121496
119,1008,1005580044,0,F,1900,121 EAST 12TH STREET LLC,1,7.0,69,41750,40.7325679,-73.9889913,1005580044.0,1986,0,103,46879983.8372,30468.3021666,POINT (-73.9889913 40.7325679),605.072463768116
120,854,1005040014,50,D,1893,196 SIXTH CORP,1,9.0,20,32738,40.7263981,-74.0031822,1005040014.0,1985,2015,102,37689203.7704,34130.5953922,POINT (-74.0031822 40.7263981),1636.9
121,856,1005040036,91,A,1961,100 REALTY EQUITIES,1,6.0,70,33750,40.72569,-74.00333,1005040036.0,0,0,102,37689203.7704,34130.5953922,POINT (-74.00333 40.72569),482.14285714285717
122,900,1005207501,13,D,1886,KIND STREET CONDOMINIUM,1,4.0,38,31054,40.7280148,-74.0040445,1005207501.0,1982,0,102,37689203.7704,34130.5953922,POINT (-74.0040445 40.7280148),817.2105263157895
123,935,1005307505,39,D,2008,UNAVAILABLE OWNER,1,11.0,26,71134,40.7264309,-73.9931522,1005307505.0,0,0,102,37689203.7704,34130.5953922,POINT (-73.9931522 40.7264309),2735.923076923077
124,1020,1005610001,85,A,1923,29-45 TENANTS CORP,1,12.0,26,38915,40.7321785,-73.9938949,1005610001.0,1983,0,102,37689203.7704,34130.5953922,POINT (-73.9938949 40.7321785),1496.7307692307693
125,1058,1005690001,65,C,1905,43 TENANTS CORP,1,11.0,42,64218,40.7340285,-73.9945803,1005690001.0,1983,0,102,37689203.7704,34130.5953922,POINT (-73.9945803 40.7340285),1529.0
126,1093,1005750072,86,A,1846,45 WEST 11TH STREET,1,8.0,34,27308,40.7349782,-73.9967092,1005750072.0,1996,0,102,37689203.7704,34130.5953922,POINT (-73.9967092 40.7349782),803.1764705882352
127,1106,1005767501,72,B,1966,VILLAGE HOUSE CONDOMINIUM CORP,1,14.0,70,58516,40.7362216,-73.9968751,1005767501.0,0,0,102,37689203.7704,34130.5953922,POINT (-73.9968751 40.7362216),835.9428571428572
128,1132,1005840046,75,B,1901,55 MORTON STREET TENANTS CORP,1,6.0,73,40180,40.7310833,-74.0057838,1005840046.0,0,0,102,37689203.7704,34130.5953922,POINT (-74.0057838 40.7310833),550.4109589041096
129,1136,1005880071,75,B,1888,35 GROVE LLC,1,5.0,65,31460,40.7328977,-74.0047196,1005880071.0,1987,0,102,37689203.7704,34130.5953922,POINT (-74.0047196 40.7328977),484.0
130,1137,1005890014,94,A,1920,22 CORNELIA STREET,3,5.0,60,26110,40.731207,-74.0021721,1005890014.0,2014,0,102,37689203.7704,34130.5953922,POINT (-74.0021721 40.731207),435.1666666666667
131,1183,1006030001,64,C,1960,WVH HOUSING CORPORATION,18,5.0,184,215890,40.7315854,-74.0095508,1006030001.0,0,0,102,37689203.7704,34130.5953922,POINT (-74.0095508 40.7315854),1173.3152173913043
132,1197,1006080053,42,D,1916,125 W 12TH ST TENANTS CORP,1,6.0,34,31128,40.7365812,-73.9985314,1006080053.0,0,0,102,37689203.7704,34130.5953922,POINT (-73.9985314 40.7365812),915.5294117647059
133,1199,1006080074,58,C,1922,171 W 12 ST INC,1,6.0,25,31750,40.7371823,-73.9999531,1006080074.0,0,0,102,37689203.7704,34130.5953922,POINT (-73.9999531 40.7371823),1270.0
134,1226,1006180042,97,A,1961,205 WEST 13TH LLC C/O,1,7.0,55,26700,40.738294,-74.0005918,1006180042.0,2003,0,102,37689203.7704,34130.5953922,POINT (-74.0005918 40.738294),485.45454545454544
135,1264,1006317503,68,C,1895,UNAVAILABLE OWNER,1,13.0,54,120394,40.7336578,-74.0081872,1006317503.0,1979,2014,102,37689203.7704,34130.5953922,POINT (-74.0081872 40.7336578),2229.5185185185187
136,1273,1006350042,21,D,1907,ELK 123 BONCK LLC,1,4.0,49,37064,40.7364931,-74.0077906,1006350042.0,1978,0,102,37689203.7704,34130.5953922,POINT (-74.0077906 40.7364931),756.4081632653061
137,904,1005210071,53,D,1894,10 BLEECKER ST OWNERS CORP,1,7.0,23,40607,40.7252205,-73.9929359,1005210071.0,1986,2014,102,37689203.7704,34130.5953922,POINT (-73.9929359 40.7252205),1765.5217391304348
138,862,1005060016,91,A,1927,"LDJ HOLDING CORP., A NEW YORK CORPORATIO N",1,6.0,86,44256,40.7268263,-74.0044558,1005060016.0,1987,0,102,37689203.7704,34130.5953922,POINT (-74.0044558 40.7268263),514.6046511627907
139,911,1005230032,10,D,1940,200 MERCER ST APARTMENT,2,4.0,28,52000,40.7264009,-73.9965437,1005230032.0,2014,0,102,37689203.7704,34130.5953922,POINT (-73.9965437 40.7264009),1857.142857142857
140,921,1005250040,94,A,1961,180 THOMPSON OWNERS C,1,7.0,39,27000,40.7278968,-73.9998052,1005250040.0,1978,0,102,37689203.7704,34130.5953922,POINT (-73.9998052 40.7278968),692.3076923076923
141,916,1005240001,74,B,1967,WASHINGTON SQ. APARTMENTS INC,1,30.0,174,212832,40.7271365,-73.9990223,1005240001.0,1983,2004,102,37689203.7704,34130.5953922,POINT (-73.9990223 40.7271365),1223.1724137931035
142,942,1005320030,46,D,1903,"MERCER ASSOCIATES, L",1,6.0,43,28917,40.7269773,-73.9963127,1005320030.0,1977,0,102,37689203.7704,34130.5953922,POINT (-73.9963127 40.7269773),672.4883720930233
143,985,1005520062,56,C,1925,WEST SQUARE CORP,1,15.0,32,60583,40.7318602,-73.9992495,1005520062.0,1987,0,102,37689203.7704,34130.5953922,POINT (-73.9992495 40.7318602),1893.21875
144,951,1005420025,86,A,1941,290 TENNANTS CORP,1,6.0,65,54924,40.730024,-74.0016056,1005420025.0,1983,0,102,37689203.7704,34130.5953922,POINT (-74.0016056 40.730024),844.9846153846154
145,1023,1005610037,22,D,1964,JEFFERSON TENANTS CORP.,1,14.0,173,139566,40.731764,-73.9927873,1005610037.0,1989,0,102,37689203.7704,34130.5953922,POINT (-73.9927873 40.731764),806.7398843930636
146,1024,1005610045,86,A,1925,29-45 TENANTS CORP,1,10.0,68,98609,40.7320275,-73.9934078,1005610045.0,1989,0,102,37689203.7704,34130.5953922,POINT (-73.9934078 40.7320275),1450.1323529411766
147,918,1005250016,36,D,1908,TOM SULLIVAN LLC,1,7.0,55,28623,40.7281603,-74.0002129,1005250016.0,1985,0,102,37689203.7704,34130.5953922,POINT (-74.0002129 40.7281603),520.4181818181818
148,965,1005450046,86,A,1886,416 MANAGEMENT LLC,1,4.0,41,27612,40.7288079,-73.9928489,1005450046.0,1987,0,102,37689203.7704,34130.5953922,POINT (-73.9928489 40.7288079),673.4634146341464
149,1064,1005700008,88,A,1900,10 EAST 13TH STREET LLC,1,6.0,54,49408,40.7348793,-73.993671,1005700008.0,1982,0,102,37689203.7704,34130.5953922,POINT (-73.993671 40.7348793),914.9629629629629
150,855,1005040031,85,A,1959,110 REALTY EQUITIES LLC,1,6.0,60,38880,40.7259919,-74.0030811,1005040031.0,1963,0,102,37689203.7704,34130.5953922,POINT (-74.0030811 40.7259919),648.0
151,1092,1005750057,72,B,1923,15 TENANT STOCKHOLDERS INC,1,9.0,42,51113,40.7345418,-73.9956917,1005750057.0,0,0,102,37689203.7704,34130.5953922,POINT (-73.9956917 40.7345418),1216.9761904761904
152,1097,1005760016,69,C,1960,4213 VILLAGE CORP,1,5.0,40,31540,40.736024,-73.9964024,1005760016.0,1988,0,102,37689203.7704,34130.5953922,POINT (-73.9964024 40.736024),788.5
153,1131,1005830029,27,D,1919,UNAVAILABLE OWNER,1,8.0,25,47846,40.730754,-74.0047483,1005830029.0,1983,0,102,37689203.7704,34130.5953922,POINT (-74.0047483 40.730754),1913.84
154,1071,1005720017,33,D,1900,38-50 WEST 9 STREET CORP,3,6.0,54,73098,40.7335483,-73.9981381,1005720017.0,1987,0,102,37689203.7704,34130.5953922,POINT (-73.9981381 40.7335483),1353.6666666666667
155,1081,1005730062,62,C,1929,35 WEST 9 OWNERS CORP,1,9.0,36,41412,40.7337376,-73.997467,1005730062.0,0,0,102,37689203.7704,34130.5953922,POINT (-73.997467 40.7337376),1150.3333333333333
156,1041,1005640026,90,A,1900,UNIVERSITY MEWS OWNERS INC,1,8.0,95,79974,40.7337593,-73.9917876,1005640026.0,1986,0,102,37689203.7704,34130.5953922,POINT (-73.9917876 40.7337593),841.8315789473684
157,1059,1005690003,95,A,1925,45 FIFTH AVENUE APARTMENT CORP.,1,16.0,65,45248,40.7341602,-73.9945587,1005690003.0,1984,0,102,37689203.7704,34130.5953922,POINT (-73.9945587 40.7341602),696.123076923077
158,926,1005280001,61,C,1952,HOUSTON STREET OWNERS CORP,1,13.0,115,71490,40.7286214,-74.0035936,1005280001.0,1987,0,102,37689203.7704,34130.5953922,POINT (-74.0035936 40.7286214),621.6521739130435
159,927,1005280035,100,A,1889,40 DOWNING STREET HDFC,1,5.0,20,36850,40.7290221,-74.0039977,1005280035.0,0,0,102,37689203.7704,34130.5953922,POINT (-74.0039977 40.7290221),1842.5
160,1085,1005740015,68,C,1912,56 WEST 11TH STREET LLC,1,9.0,36,27184,40.7347587,-73.9973371,1005740015.0,0,0,102,37689203.7704,34130.5953922,POINT (-73.9973371 40.7347587),755.1111111111111
161,1182,1006027502,44,D,1911,627 GREENWICH OWNER LLC,1,12.0,35,89841,40.7308142,-74.0077611,1006027502.0,2015,2015,102,37689203.7704,34130.5953922,POINT (-74.0077611 40.7308142),2566.885714285714
162,947,1005397501,87,A,1910,UNAVAILABLE OWNER,2,7.0,24,62663,40.7292253,-73.9997438,1005397501.0,1994,2013,102,37689203.7704,34130.5953922,POINT (-73.9997438 40.7292253),2610.9583333333335
163,1210,1006120033,75,B,1914,29-31 CHARLES STREET REALTY LLC,1,6.0,37,27108,40.7351896,-74.0024825,1006120033.0,0,0,102,37689203.7704,34130.5953922,POINT (-74.0024825 40.7351896),732.6486486486486
164,950,1005420011,86,A,1940,SARAH WEILL,1,5.0,65,45720,40.7302436,-74.0013566,1005420011.0,0,0,102,37689203.7704,34130.5953922,POINT (-74.0013566 40.7302436),703.3846153846154
165,1140,1005900079,99,A,1889,JONES ST APTS INC,1,6.0,48,36760,40.7322747,-74.0024211,1005900079.0,1986,0,102,37689203.7704,34130.5953922,POINT (-74.0024211 40.7322747),765.8333333333334
166,973,1005480024,29,D,1900,SNUG HARBOR OWNERS INC,2,6.0,63,86332,40.7306551,-73.9940286,1005480024.0,1983,0,102,37689203.7704,34130.5953922,POINT (-73.9940286 40.7306551),1370.3492063492063
167,983,1005520010,39,D,1903,82 WASHINGTON ASSOCIATES,1,6.0,35,27108,40.7318904,-74.0001696,1005520010.0,1989,0,102,37689203.7704,34130.5953922,POINT (-74.0001696 40.7318904),774.5142857142857
168,1147,1005920082,92,A,1924,13-15 SHERIDAN SQUARE LLC,1,6.0,52,38214,40.7331448,-74.0017356,1005920082.0,1985,0,102,37689203.7704,34130.5953922,POINT (-74.0017356 40.7331448),734.8846153846154
169,1156,1005947505,35,D,2005,255 HUDSON CONDOMINIUM,1,12.0,64,77913,40.7247044,-74.0081861,1005947505.0,0,0,102,37689203.7704,34130.5953922,POINT (-74.0081861 40.7247044),1217.390625
170,1239,1006240041,35,D,1925,12TH REALTY ASSOCIATES,1,6.0,54,34872,40.7372673,-74.0044204,1006240041.0,1987,0,102,37689203.7704,34130.5953922,POINT (-74.0044204 40.7372673),645.7777777777778
171,1193,1006077502,13,D,1941,UNAVAILABLE OWNER,1,13.0,42,83082,40.7362601,-73.9989572,1006077502.0,0,0,102,37689203.7704,34130.5953922,POINT (-73.9989572 40.7362601),1978.142857142857
172,1245,1006260012,91,A,1964,61 JANE ST TENANTS CORP,1,19.0,261,262297,40.738442,-74.0058855,1006260012.0,0,0,102,37689203.7704,34130.5953922,POINT (-74.0058855 40.738442),1004.9693486590038
173,1191,1006060047,17,D,1899,UNADILLA OWNERS CORP,1,7.0,28,29624,40.7356562,-73.9996211,1006060047.0,0,0,102,37689203.7704,34130.5953922,POINT (-73.9996211 40.7356562),1058.0
174,1253,1006290044,60,C,1964,SUPREME COMPANY I,1,6.0,77,56508,40.7395537,-74.0035364,1006290044.0,0,0,102,37689203.7704,34130.5953922,POINT (-74.0035364 40.7395537),733.8701298701299
175,1198,1006080060,0,F,1910,CENTRENTSET CORP 45,3,6.0,105,52200,40.7368365,-73.9991304,1006080060.0,0,0,102,37689203.7704,34130.5953922,POINT (-73.9991304 40.7368365),497.14285714285717
176,1260,1006310030,73,B,1892,RKS 259 WEST 10TH LLC,1,8.0,53,51200,40.7337951,-74.0070109,1006310030.0,0,0,102,37689203.7704,34130.5953922,POINT (-74.0070109 40.7337951),966.0377358490566
177,1266,1006320031,0,F,1896,135 CHARLES STREET LLC,2,6.0,50,34504,40.7343989,-74.0078373,1006320031.0,1986,0,102,37689203.7704,34130.5953922,POINT (-74.0078373 40.7343989),690.08
178,1269,1006340016,84,B,1957,"BANK STREET ASSOCIATES,LLC",1,6.0,61,42258,40.7361363,-74.0073142,1006340016.0,1986,0,102,37689203.7704,34130.5953922,POINT (-74.0073142 40.7361363),692.7540983606557
179,1270,1006340023,83,B,1956,100 BANK ST OWNERS CORP,1,6.0,55,45426,40.7361913,-74.0069498,1006340023.0,1984,0,102,37689203.7704,34130.5953922,POINT (-74.0069498 40.7361913),825.9272727272727
180,1103,1005760056,100,A,1901,31 OPERATING CORP,1,11.5,23,44586,40.7353789,-73.9957457,1005760056.0,0,0,102,37689203.7704,34130.5953922,POINT (-73.9957457 40.7353789),1938.5217391304348
181,1280,1006370081,70,B,1987,167 HOUSING CORP,1,6.0,75,60000,40.7348983,-74.0095441,1006370081.0,0,0,102,37689203.7704,34130.5953922,POINT (-74.0095441 40.7348983),800.0
182,1285,1006377508,22,D,1905,UNAVAILABLE OWNER,1,8.0,20,44289,40.7344756,-74.0093744,1006377508.0,1987,2006,102,37689203.7704,34130.5953922,POINT (-74.0093744 40.7344756),2214.45
183,1287,1006380004,99,A,1920,RIVERBANK APT CORP,1,7.0,30,63000,40.7357821,-74.0096272,1006380004.0,1981,0,102,37689203.7704,34130.5953922,POINT (-74.0096272 40.7357821),2100.0
184,1295,1006417503,1,D,2007,385 WEST 12TH STREET CONDOMINIUM,1,7.0,12,40286,40.7377447,-74.0088697,1006417503.0,0,0,102,37689203.7704,34130.5953922,POINT (-74.0088697 40.7377447),3357.1666666666665
185,1298,1006420012,82,B,1883,110-114 HORATIO II L.L.C.,1,6.0,33,26250,40.7385763,-74.0089853,1006420012.0,1987,0,102,37689203.7704,34130.5953922,POINT (-74.0089853 40.7385763),795.4545454545455
186,1299,1006420042,74,B,1920,HORATIO ARMS INC,1,5.0,66,44385,40.7385188,-74.0078486,1006420042.0,1970,0,102,37689203.7704,34130.5953922,POINT (-74.0078486 40.7385188),672.5
187,1214,1006150086,89,A,1911,GREENWICH HOUSE HOLDING CORP,1,6.0,24,58565,40.737885,-74.0026667,1006150086.0,0,0,102,37689203.7704,34130.5953922,POINT (-74.0026667 40.737885),2440.2083333333335
188,1227,1006180044,100,A,1909,209 WEST 13 ASSOCIATES,1,6.0,36,27075,40.7383626,-74.0007542,1006180044.0,1985,0,102,37689203.7704,34130.5953922,POINT (-74.0007542 40.7383626),752.0833333333334
189,1235,1006220056,44,D,1903,55 PERRY ST COMPANY LLC,1,6.0,72,34140,40.7357111,-74.0036012,1006220056.0,1988,0,102,37689203.7704,34130.5953922,POINT (-74.0036012 40.7357111),474.1666666666667
190,1238,1006240031,74,B,1927,ALPERT CHARLES,1,6.0,42,35136,40.7371273,-74.0049147,1006240031.0,1987,0,102,37689203.7704,34130.5953922,POINT (-74.0049147 40.7371273),836.5714285714286
191,1240,1006240044,89,A,1903,290 W12 LLC,1,6.0,44,26694,40.7373085,-74.0041967,1006240044.0,1988,0,102,37689203.7704,34130.5953922,POINT (-74.0041967 40.7373085),606.6818181818181
192,1255,1006297501,86,A,1907,GANSEVOORT CONDOMINIUM INC,1,7.0,21,24171,40.7397266,-74.0039947,1006297501.0,0,0,102,37689203.7704,34130.5953922,POINT (-74.0039947 40.7397266),1151.0
193,1246,1006260036,0,F,1910,JANE-HORATIO LLC,2,3.0,47,41970,40.7384503,-74.0044962,1006260036.0,0,0,102,37689203.7704,34130.5953922,POINT (-74.0044962 40.7384503),892.9787234042553
194,1151,1005937502,27,D,1912,UNAVAILABLE OWNER,1,13.0,18,37298,40.7335153,-74.0008912,1005937502.0,2007,0,102,37689203.7704,34130.5953922,POINT (-74.0008912 40.7335153),2072.1111111111113
195,1259,1006300043,55,C,1911,HUDSON MEWS APT CORP,2,6.0,30,40320,40.7333532,-74.0067041,1006300043.0,0,0,102,37689203.7704,34130.5953922,POINT (-74.0067041 40.7333532),1344.0
196,1267,1006320039,97,A,1909,GREENWICH GREEN COOPERATIVE IN,1,6.0,14,25746,40.7345938,-74.0068269,1006320039.0,1976,0,102,37689203.7704,34130.5953922,POINT (-74.0068269 40.7345938),1839.0
197,1188,1006047501,47,D,1920,CHARLES H GREENTHAL,1,6.0,95,85508,40.7322112,-74.0093308,1006047501.0,1983,0,102,37689203.7704,34130.5953922,POINT (-74.0093308 40.7322112),900.0842105263158
198,1276,1006367501,48,D,1997,RIVERWEST CONDOMINIUM ASSOCIATION,1,15.0,24,28572,40.7330785,-74.0093345,1006367501.0,0,0,102,37689203.7704,34130.5953922,POINT (-74.0093345 40.7330785),1190.5
199,1278,1006370066,87,A,1974,WVH HOUSING CORPORATION,5,5.0,72,59820,40.7351207,-74.0086564,1006370066.0,0,0,102,37689203.7704,34130.5953922,POINT (-74.0086564 40.7351207),830.8333333333334
200,1282,1006377502,66,C,1987,366 WEST 11 ST CONDO,1,13.0,79,54811,40.7351618,-74.0092843,1006377502.0,0,0,102,37689203.7704,34130.5953922,POINT (-74.0092843 40.7351618),693.8101265822785
201,1286,1006380001,33,D,1930,RIVERBANK SOUTH OWNERS CORP,1,4.0,38,69755,40.7355433,-74.0094792,1006380001.0,1982,0,102,37689203.7704,34130.5953922,POINT (-74.0094792 40.7355433),1835.657894736842
202,1288,1006380019,58,C,1939,WVH HOUSING CORPORATION,10,5.0,100,118350,40.7358261,-74.0088297,1006380019.0,0,0,102,37689203.7704,34130.5953922,POINT (-74.0088297 40.7358261),1183.5
203,1290,1006400012,84,B,1939,WAYWEST TENANTS CORP,1,7.0,53,100320,40.7373604,-74.0088732,1006400012.0,1979,0,102,37689203.7704,34130.5953922,POINT (-74.0088732 40.7373604),1892.8301886792453
204,1297,1006420004,82,B,1987,110-114 HORATIO II L.L.C.,1,10.0,121,85030,40.7385461,-74.0093136,1006420004.0,0,0,102,37689203.7704,34130.5953922,POINT (-74.0093136 40.7385461),702.7272727272727
205,1234,1006220041,95,A,1924,270 W 11 ST OWNERS CORP,1,6.0,48,29725,40.7358812,-74.0042218,1006220041.0,1990,0,102,37689203.7704,34130.5953922,POINT (-74.0042218 40.7358812),619.2708333333334
206,1272,1006350026,96,A,1949,BARCLAY 7 REALTY LLC,1,6.0,90,70350,40.7366936,-74.0068272,1006350026.0,0,0,102,37689203.7704,34130.5953922,POINT (-74.0068272 40.7366936),781.6666666666666
207,1274,1006357501,26,D,1886,PICKWICK HOUSE INC,1,6.0,24,30113,40.7367896,-74.0076679,1006357501.0,0,0,102,37689203.7704,34130.5953922,POINT (-74.0076679 40.7367896),1254.7083333333333
208,1275,1006360022,100,A,1964,"KRAUSE, LAURENCE",1,7.0,214,165436,40.7330237,-74.0089412,1006360022.0,1986,0,102,37689203.7704,34130.5953922,POINT (-74.0089412 40.7330237),773.0654205607476
209,1281,1006377501,59,C,1913,155 PERRY ST CONDOMINUM,1,8.0,32,41475,40.7349313,-74.008927,1006377501.0,1986,0,102,37689203.7704,34130.5953922,POINT (-74.008927 40.7349313),1296.09375
210,1293,1006410010,99,A,1930,HARBOR HOUSE OWNERS CORP  C/O TUDOR REAL TY SVCS CORP,1,6.0,50,50820,40.7379725,-74.0088697,1006410010.0,0,0,102,37689203.7704,34130.5953922,POINT (-74.0088697 40.7379725),1016.4
211,1294,1006410017,80,B,1996,100 JANE STREET L P C,1,9.0,148,123646,40.73786,-74.00848,1006410017.0,0,0,102,37689203.7704,34130.5953922,POINT (-74.00848 40.73786),835.4459459459459
212,1386,1007167503,28,D,2007,UNAVAILABLE OWNER,1,12.0,46,70730,40.7445134,-74.0055179,1007167503.0,0,0,104,49311161.29,67568.9181041,POINT (-74.0055179 40.7445134),1537.608695652174
213,1391,1007177501,67,C,1989,CHATHAM CHELSEA C/O B.H.S.,1,10.0,71,41639,40.7450103,-74.0048864,1007177501.0,0,0,104,49311161.29,67568.9181041,POINT (-74.0048864 40.7450103),586.4647887323944
214,1405,1007230001,11,D,1940,NYC HOUSING AUTHORITY,2,11.0,240,325140,40.748993,-74.0023495,1007230001.0,1987,0,104,49311161.29,67568.9181041,POINT (-74.0023495 40.748993),1354.75
215,1409,1007240001,11,D,1946,NYC HOUSING AUTHORITY,3,12.0,162,159200,40.7497341,-74.0020897,1007240001.0,0,0,104,49311161.29,67568.9181041,POINT (-74.0020897 40.7497341),982.716049382716
216,1425,1007320058,52,D,1989,434 WEST 35 ST CO,1,17.0,86,64449,40.7545264,-73.997542,1007320058.0,0,0,104,49311161.29,67568.9181041,POINT (-73.997542 40.7545264),749.4069767441861
217,1436,1007380015,99,A,1900,335-7,1,7.0,28,28321,40.7407367,-74.0040525,1007380015.0,0,0,104,49311161.29,67568.9181041,POINT (-74.0040525 40.7407367),1011.4642857142857
218,1467,1007530056,78,B,1928,FRENCH APTS HOUSING DEVELOPMENT FUND,1,13.0,223,147888,40.749992,-73.9969033,1007530056.0,0,0,104,49311161.29,67568.9181041,POINT (-73.9969033 40.749992),663.1748878923767
219,1558,1007667504,64,C,1926,UNAVAILABLE OWNER,1,10.0,31,49841,40.7410113,-74.0001227,1007667504.0,2006,2006,104,49311161.29,67568.9181041,POINT (-74.0001227 40.7410113),1607.774193548387
220,1576,1007700051,69,C,1920,218-220 WEST 21ST STREET LLC,1,7.0,35,25778,40.7430259,-73.9976976,1007700051.0,1986,0,104,49311161.29,67568.9181041,POINT (-73.9976976 40.7430259),736.5142857142857
221,1724,1007930020,79,B,1920,131 WEST 17 REALTY CORP,1,6.0,24,44004,40.7400039,-73.9966368,1007930020.0,1979,0,104,49311161.29,67568.9181041,POINT (-73.9966368 40.7400039),1833.5
222,1748,1007960067,93,A,1950,2 ELLWOOD ST. L.L.C.,1,6.0,61,48249,40.7423561,-73.9960556,1007960067.0,1987,0,104,49311161.29,67568.9181041,POINT (-73.9960556 40.7423561),790.9672131147541
223,1756,1007970074,75,B,2000,"160 WEST 22ND STREET, INC.",1,13.0,51,41423,40.7429792,-73.995637,1007970074.0,0,0,104,49311161.29,67568.9181041,POINT (-73.995637 40.7429792),812.2156862745098
224,1389,1007170019,2,D,1965,NYC HOUSING AUTHORITY,1,7.0,36,45420,40.7445053,-74.0037352,1007170019.0,1987,0,104,49311161.29,67568.9181041,POINT (-74.0037352 40.7445053),1261.6666666666667
225,1404,1007227501,12,D,1912,UNAVAILABLE OWNER,1,9.0,79,95935,40.7480872,-74.0017179,1007227501.0,0,0,104,49311161.29,67568.9181041,POINT (-74.0017179 40.7480872),1214.367088607595
226,1411,1007240015,11,D,1968,NYC HOUSING AUTHORITY,1,12.0,81,187330,40.7492839,-74.0009781,1007240015.0,1987,0,104,49311161.29,67568.9181041,POINT (-74.0009781 40.7492839),2312.716049382716
227,2982,1010410038,77,B,1945,THREE O SIX L P,1,6.0,38,25482,40.7629986,-73.9864161,1010410038.0,1996,0,104,49311161.29,67568.9181041,POINT (-73.9864161 40.7629986),670.578947368421
228,2991,1010430046,31,D,1920,"HP W53 HOUSING DEVELOPMENT FUND COMPANY,  INC.",1,6.0,41,29422,40.7645384,-73.9861992,1010430046.0,1982,0,104,49311161.29,67568.9181041,POINT (-73.9861992 40.7645384),717.609756097561
229,2993,1010437503,8,D,2005,UNAVAILABLE OWNER,1,7.0,66,52600,40.7648184,-73.9868742,1010437503.0,0,0,104,49311161.29,67568.9181041,POINT (-73.9868742 40.7648184),796.969696969697
230,3000,1010450051,73,B,1925,340 OWNERS CORP,1,11.0,56,65750,40.7659299,-73.9856177,1010450051.0,1981,0,104,49311161.29,67568.9181041,POINT (-73.9856177 40.7659299),1174.107142857143
231,1327,1006927502,24,D,2013,UNAVAILABLE OWNER,1,8.0,33,84634,40.7462371,-74.0056264,1006927502.0,0,0,104,49311161.29,67568.9181041,POINT (-74.0056264 40.7462371),2564.6666666666665
232,3037,1010550001,49,D,1900,THE PIANO FACTORY CORP,1,6.0,48,60000,40.761668,-73.9934085,1010550001.0,1981,0,104,49311161.29,67568.9181041,POINT (-73.9934085 40.761668),1250.0
233,1380,1007140031,2,D,1963,NYC HOUSING AUTHORITY,4,7.0,36,298470,40.7429517,-74.0050306,1007140031.0,2015,0,104,49311161.29,67568.9181041,POINT (-74.0050306 40.7429517),8290.833333333334
234,1544,1007640051,76,B,1928,OUR LADY OF PEACE INC,1,10.0,64,38330,40.7395126,-74.0005269,1007640051.0,1974,0,104,49311161.29,67568.9181041,POINT (-74.0005269 40.7395126),598.90625
235,1387,1007167506,100,A,2017,UNAVAILABLE OWNER,1,18.0,160,134004,40.7442115,-74.0048034,1007167506.0,0,0,104,49311161.29,67568.9181041,POINT (-74.0048034 40.7442115),837.525
236,1396,1007190020,46,D,1930,"433 WEST ASSOCIATES,",1,13.0,69,63956,40.7459874,-74.0035259,1007190020.0,1988,0,104,49311161.29,67568.9181041,POINT (-74.0035259 40.7459874),926.8985507246376
237,1397,1007190029,1,D,1938,421 WEST 21ST STREET LLC,1,6.0,36,26800,40.7458337,-74.0031398,1007190029.0,1989,0,104,49311161.29,67568.9181041,POINT (-74.0031398 40.7458337),744.4444444444445
238,1550,1007650047,57,C,1925,"UNITED CHELSEA, LLC",1,6.5,52,33547,40.7399435,-73.9994659,1007650047.0,1985,0,104,49311161.29,67568.9181041,POINT (-73.9994659 40.7399435),645.1346153846154
239,1552,1007660009,57,C,1930,253 W 16 OWNERS INC,1,6.0,53,37782,40.7409893,-74.0007398,1007660009.0,1986,0,104,49311161.29,67568.9181041,POINT (-74.0007398 40.7409893),712.8679245283018
240,1556,1007660071,70,B,1920,248 W. 17 REALTY LLC,1,6.0,48,25362,40.7410936,-74.0003933,1007660071.0,0,0,104,49311161.29,67568.9181041,POINT (-74.0003933 40.7410936),528.375
241,1569,1007687501,87,A,1939,CHARLES H GREENTHAL & CO INC,1,6.0,69,48676,40.7417304,-73.9982101,1007687501.0,0,0,104,49311161.29,67568.9181041,POINT (-73.9982101 40.7417304),705.4492753623189
242,1571,1007690053,13,D,1920,226 WEST 20TH STREETHOUSING DEVELOPMENT  ETC.,1,8.0,52,27381,40.7426252,-73.9984951,1007690053.0,1999,1999,104,49311161.29,67568.9181041,POINT (-73.9984951 40.7426252),526.5576923076923
243,1406,1007230015,26,D,1962,NYC HOUSING AUTHORITY,2,21.0,425,567000,40.7485456,-74.0012307,1007230015.0,1987,0,104,49311161.29,67568.9181041,POINT (-74.0012307 40.7485456),1334.1176470588234
244,1577,1007700059,89,A,1913,234 W 21ST ST OWNRS C,1,7.0,35,32718,40.7432482,-73.9982425,1007700059.0,1983,0,104,49311161.29,67568.9181041,POINT (-73.9982425 40.7432482),934.8
245,1582,1007710068,69,C,1920,"WEST 22ND STREET ASSOCIATES #1, LLC",1,5.0,39,30375,40.7440909,-73.9982822,1007710068.0,0,0,104,49311161.29,67568.9181041,POINT (-73.9982822 40.7440909),778.8461538461538
246,3068,1010660037,88,A,1957,408 WEST 57TH OWNERS CORP,1,10.0,147,104966,40.7679474,-73.9866245,1010660037.0,1987,0,104,49311161.29,67568.9181041,POINT (-73.9866245 40.7679474),714.0544217687075
247,1591,1007730056,90,A,1930,5537 - 225 WEST 23RD AND 220 WEST 24TH S TREET,1,6.0,118,57207,40.7449883,-73.996272,1007730056.0,0,0,104,49311161.29,67568.9181041,POINT (-73.996272 40.7449883),484.8050847457627
248,1596,1007750009,22,D,1938,245 OWNER LLC,1,6.0,67,39698,40.7463443,-73.9964127,1007750009.0,2015,2015,104,49311161.29,67568.9181041,POINT (-73.9964127 40.7463443),592.5074626865671
249,1598,1007750022,53,D,1939,225 25 HOUSING CORP,1,6.0,68,62586,40.7460258,-73.9956548,1007750022.0,0,0,104,49311161.29,67568.9181041,POINT (-73.9956548 40.7460258),920.3823529411765
250,3073,1010670028,92,A,1940,405 WEST 57TH STREET OWNERS CORP,1,6.0,48,43809,40.7683343,-73.985989,1010670028.0,1988,0,104,49311161.29,67568.9181041,POINT (-73.985989 40.7683343),912.6875
251,1418,1007310060,89,A,1963,CONVENTION OVERLOOK INC,1,17.0,178,108402,40.7536618,-73.997672,1007310060.0,0,0,104,49311161.29,67568.9181041,POINT (-73.997672 40.7536618),609.0
252,1419,1007310065,56,C,1928,440 WEST 34TH STREET LLC,1,16.0,134,119194,40.7537935,-73.9979896,1007310065.0,1987,0,104,49311161.29,67568.9181041,POINT (-73.9979896 40.7537935),889.5074626865671
253,1445,1007420022,76,B,1928,319 WEST 18 STREET OWNERS CORP BUCHBINDE R LLC,1,6.0,60,33900,40.7428859,-74.0016492,1007420022.0,1986,1998,104,49311161.29,67568.9181041,POINT (-74.0016492 40.7428859),565.0
254,3096,1010727501,99,A,2017,1818 NADLAN LLC,1,15.0,131,134830,40.7609133,-73.9954698,1010727501.0,0,0,104,49311161.29,67568.9181041,POINT (-73.9954698 40.7609133),1029.2366412213742
255,3106,1010760015,90,A,1920,"CLINTON HOUSING PRESERVATION, L.P.",1,6.0,49,52850,40.7635894,-73.9944372,1010760015.0,1987,0,104,49311161.29,67568.9181041,POINT (-73.9944372 40.7635894),1078.5714285714287
256,3114,1010780016,55,C,1940,"HOMES FOR THE HOMELESS INSTITUTE, INC.",1,7.0,47,26500,40.7648272,-73.9934912,1010780016.0,1985,0,104,49311161.29,67568.9181041,POINT (-73.9934912 40.7648272),563.8297872340426
257,3133,1010840009,21,D,1976,NYC HOUSING AUTHORITY,1,15.0,182,233348,40.7687246,-73.9907038,1010840009.0,0,0,104,49311161.29,67568.9181041,POINT (-73.9907038 40.7687246),1282.131868131868
258,1437,1007380048,88,A,1900,312 WEST 15TH STREET LLC,1,6.0,36,28078,40.7405501,-74.0028725,1007380048.0,0,0,104,49311161.29,67568.9181041,POINT (-74.0028725 40.7405501),779.9444444444445
259,1710,1007910009,91,A,1940,155 W 15 ST HOUSING CORP,1,7.0,39,49880,40.7391174,-73.9982859,1007910009.0,1980,1998,104,49311161.29,67568.9181041,POINT (-73.9982859 40.7391174),1278.974358974359
260,1717,1007920020,92,A,1918,"AAK ACQUISITIONS, LLC",1,6.0,43,39504,40.7393946,-73.9970085,1007920020.0,0,0,104,49311161.29,67568.9181041,POINT (-73.9970085 40.7393946),918.6976744186046
261,1718,1007920024,89,A,1920,115 ASSOCIATES LLC,1,6.0,48,39264,40.7392628,-73.9966909,1007920024.0,0,0,104,49311161.29,67568.9181041,POINT (-73.9966909 40.7392628),818.0
262,1719,1007920028,90,A,1925,111 W 16TH ST OWNERS INC,1,6.0,83,39455,40.739131,-73.996377,1007920028.0,1985,0,104,49311161.29,67568.9181041,POINT (-73.996377 40.739131),475.3614457831325
263,1456,1007467502,39,D,1985,358 W 23RD ST CONDOMINIUM,1,9.0,44,41918,40.7457789,-74.0003537,1007467502.0,0,0,104,49311161.29,67568.9181041,POINT (-74.0003537 40.7457789),952.6818181818181
264,1733,1007947501,86,A,2005,UNAVAILABLE OWNER,1,13.0,64,90401,40.7408794,-73.9962145,1007947501.0,0,0,104,49311161.29,67568.9181041,POINT (-73.9962145 40.7408794),1412.515625
265,1446,1007427501,92,A,1950,305 CONDOMINIUM,1,6.0,60,35239,40.7427185,-74.0011837,1007427501.0,0,0,104,49311161.29,67568.9181041,POINT (-74.0011837 40.7427185),587.3166666666667
266,1757,1007970076,89,A,1950,166 WEST 22 ST OWNER CORP,1,6.0,42,31759,40.7430835,-73.9958174,1007970076.0,1988,0,104,49311161.29,67568.9181041,POINT (-73.9958174 40.7430835),756.1666666666666
267,1760,1007977509,0,F,2016,UNAVAILABLE OWNER,1,12.0,9,32838,40.7421667,-73.9944642,1007977509.0,0,0,104,49311161.29,67568.9181041,POINT (-73.9944642 40.7421667),3648.6666666666665
268,1472,1007540021,58,C,1963,"CHELSEA TOWN, SERIES II, LLC",1,7.0,62,40016,40.7504284,-73.9965568,1007540021.0,1988,2000,104,49311161.29,67568.9181041,POINT (-73.9965568 40.7504284),645.4193548387096
269,1553,1007660023,0,F,1910,227 W 16 ST OWNERS I,3,5.0,51,31715,40.740605,-73.9998665,1007660023.0,1985,0,104,49311161.29,67568.9181041,POINT (-73.9998665 40.740605),621.8627450980392
270,1473,1007540031,81,B,1987,BRE FSC MULTIFAMILY BORROWER LLC,1,12.0,47,31512,40.7501512,-73.9959,1007540031.0,0,0,104,49311161.29,67568.9181041,POINT (-73.9959 40.7501512),670.468085106383
271,1575,1007700048,66,C,1902,210 EQUITIES CORP,1,7.0,28,25123,40.7429051,-73.9974017,1007700048.0,1985,0,104,49311161.29,67568.9181041,POINT (-73.9974017 40.7429051),897.25
272,1545,1007640062,85,A,1930,250 WEST 15TH STREET OWNERS CORP,1,6.0,59,44800,40.7398914,-74.0013208,1007640062.0,1983,0,104,49311161.29,67568.9181041,POINT (-74.0013208 40.7398914),759.3220338983051
273,1382,1007150010,2,D,1965,NYC HOUSING AUTHORITY,4,7.0,272,253070,40.7435363,-74.0047275,1007150010.0,2018,0,104,49311161.29,67568.9181041,POINT (-74.0047275 40.7435363),930.4044117647059
274,1384,1007160017,2,D,1963,NYC HOUSING AUTHORITY,3,7.0,36,253070,40.7440359,-74.0040202,1007160017.0,0,0,104,49311161.29,67568.9181041,POINT (-74.0040202 40.7440359),7029.722222222223
275,1592,1007730134,46,D,2002,CHELSEA RESIDENCES LIMITED PARTNERSHIP,1,10.0,180,68879,40.7448346,-73.9958678,1007730134.0,0,0,104,49311161.29,67568.9181041,POINT (-73.9958678 40.7448346),382.6611111111111
276,1743,1007957502,34,D,2008,UNAVAILABLE OWNER,1,13.0,35,30769,40.7414531,-73.9957309,1007957502.0,0,0,104,49311161.29,67568.9181041,POINT (-73.9957309 40.7414531),879.1142857142858
277,1402,1007220026,96,A,1926,"SILVERBOW REALTY CO., INC.",1,6.0,65,42204,40.7476782,-74.0014977,1007220026.0,1988,0,104,49311161.29,67568.9181041,POINT (-74.0014977 40.7476782),649.2923076923076
278,1765,1007980071,84,B,1910,148 W 23 ST OWNERS INC,1,12.0,107,127000,40.7434622,-73.9948719,1007980071.0,1980,0,104,49311161.29,67568.9181041,POINT (-73.9948719 40.7434622),1186.9158878504672
279,1786,1008007505,54,D,1900,CARRIAGE HOUSE CONDOMINIUM 159 WEST 24TH STREET LLC,1,8.0,24,22675,40.7447495,-73.9945542,1008007505.0,2008,2008,104,49311161.29,67568.9181041,POINT (-73.9945542 40.7447495),944.7916666666666
280,1713,1007910050,92,A,1939,114 ASSOCIATES,1,6.0,41,32736,40.7388127,-73.9967631,1007910050.0,0,0,104,49311161.29,67568.9181041,POINT (-73.9967631 40.7388127),798.439024390244
281,1714,1007910062,43,D,1927,130 W 16 OWNERS INC,1,6.0,42,32384,40.7391091,-73.997474,1007910062.0,1979,0,104,49311161.29,67568.9181041,POINT (-73.997474 40.7391091),771.047619047619
282,1715,1007920008,83,B,1962,SUPREME COMPANY I LLC,1,7.0,76,43770,40.7397788,-73.9979359,1007920008.0,1988,0,104,49311161.29,67568.9181041,POINT (-73.9979359 40.7397788),575.921052631579
283,1716,1007920012,83,B,1940,141 WEST 16 ASSOCIATES    .,1,6.0,48,34662,40.7396526,-73.9976255,1007920012.0,1987,1998,104,49311161.29,67568.9181041,POINT (-73.9976255 40.7396526),722.125
284,1759,1007977508,97,A,2012,UNAVAILABLE OWNER,1,14.0,50,55378,40.7425921,-73.995471,1007977508.0,0,0,104,49311161.29,67568.9181041,POINT (-73.995471 40.7425921),1107.56
285,1768,1007987505,82,B,2006,UNAVAILABLE OWNER,1,17.0,33,43864,40.7428583,-73.9941971,1007987505.0,0,0,104,49311161.29,67568.9181041,POINT (-73.9941971 40.7428583),1329.2121212121212
286,1469,1007537502,93,A,1925,THE IMN CONDOMINIUM,1,11.0,60,38405,40.7497779,-73.9961274,1007537502.0,1985,0,104,49311161.29,67568.9181041,POINT (-73.9961274 40.7497779),640.0833333333334
287,1471,1007540016,88,A,1987,BRE FSC MULTIFAMILY BORROWER LLC,1,11.0,37,25657,40.7506124,-73.9969935,1007540016.0,0,0,104,49311161.29,67568.9181041,POINT (-73.9969935 40.7506124),693.4324324324324
289,1551,1007650070,73,B,1930,250 W 16 ST OWNERS CO,1,5.0,46,49816,40.7406297,-74.0010898,1007650070.0,1973,0,104,49311161.29,67568.9181041,POINT (-74.0010898 40.7406297),1082.9565217391305
290,1597,1007750017,92,A,1961,"CHELSEA 25,",1,7.0,69,50029,40.7461768,-73.9960121,1007750017.0,1985,0,104,49311161.29,67568.9181041,POINT (-73.9960121 40.7461768),725.0579710144928
291,1721,1007927501,34,D,1918,135 CONDOMINIUM,1,6.0,48,31046,40.7395263,-73.9973224,1007927501.0,0,0,104,49311161.29,67568.9181041,POINT (-73.9973224 40.7395263),646.7916666666666
292,2960,1010360010,81,B,1939,SHERRINGTON HOLDINGS 1 LLC,1,6.0,90,42396,40.7601115,-73.9900661,1010360010.0,1986,0,104,49311161.29,67568.9181041,POINT (-73.9900661 40.7601115),471.06666666666666
293,2961,1010360014,89,A,1924,325 W 45 ST OWNERS CORP,1,10.0,200,127000,40.7599303,-73.989633,1010360014.0,1980,0,104,49311161.29,67568.9181041,POINT (-73.989633 40.7599303),635.0
294,2973,1010390007,82,B,1925,BANK OF CHINA,1,7.0,39,35840,40.7621233,-73.9890226,1010390007.0,1989,0,104,49311161.29,67568.9181041,POINT (-73.9890226 40.7621233),918.974358974359
295,2983,1010410047,91,A,1920,STARDOM HOUSING DEVELOPMENT FUND CORPORA TION,1,5.0,112,25512,40.7633198,-73.9871849,1010410047.0,2015,2017,104,49311161.29,67568.9181041,POINT (-73.9871849 40.7633198),227.78571428571428
296,3009,1010460043,95,A,1961,320 WEST 56TH STREET,1,7.0,68,54400,40.766325,-73.9846176,1010460043.0,1981,0,104,49311161.29,67568.9181041,POINT (-73.9846176 40.766325),800.0
297,3035,1010540056,99,A,1926,44-45 REALTY ASSC LP,1,5.0,60,65615,40.7610148,-73.9935097,1010540056.0,1986,0,104,49311161.29,67568.9181041,POINT (-73.9935097 40.7610148),1093.5833333333333
298,3038,1010557501,64,C,1986,CLINTON CLUB CONDOMINIUM,1,7.0,34,23787,40.7614402,-73.9932208,1010557501.0,0,0,104,49311161.29,67568.9181041,POINT (-73.9932208 40.7614402),699.6176470588235
299,3062,1010650023,51,D,1911,WEST 55TH STREET OWNERS CORP SIREN MANAG EMENT CORP,1,6.0,22,31468,40.7671735,-73.9873936,1010650023.0,1985,0,104,49311161.29,67568.9181041,POINT (-73.9873936 40.7671735),1430.3636363636363
300,3064,1010650044,0,F,1920,JACREG RLTY CORP,4,5.0,40,26500,40.767577,-73.987509,1010650044.0,0,0,104,49311161.29,67568.9181041,POINT (-73.987509 40.767577),662.5
301,3077,1010670052,100,A,1926,450 W 58 LLC,1,5.0,53,32665,40.7691497,-73.9871441,1010670052.0,1983,0,104,49311161.29,67568.9181041,POINT (-73.9871441 40.7691497),616.3207547169811
302,3100,1010737503,35,D,2011,UNAVAILABLE OWNER,1,14.0,100,133274,40.7615309,-73.9950041,1010737503.0,0,0,104,49311161.29,67568.9181041,POINT (-73.9950041 40.7615309),1332.74
303,3120,1010807501,16,D,2005,THE 510 W.52ND ST CONDOMINUM,1,24.0,288,247294,40.7659415,-73.9918486,1010807501.0,0,0,104,49311161.29,67568.9181041,POINT (-73.9918486 40.7659415),858.6597222222222
304,2963,1010360028,44,D,1914,"I BLDG CO., INC.",1,6.0,85,44466,40.7596311,-73.9889219,1010360028.0,1986,0,104,49311161.29,67568.9181041,POINT (-73.9889219 40.7596311),523.1294117647059
305,2990,1010430017,23,D,1910,WEST 52 ST APT CORP,4,5.0,33,41900,40.7642667,-73.9863328,1010430017.0,1981,0,104,49311161.29,67568.9181041,POINT (-73.9863328 40.7642667),1269.6969696969697
306,2998,1010450037,79,B,1941,310 W 55 ST OWNERS INC,1,6.0,62,57500,40.7655263,-73.9846503,1010450037.0,1988,0,104,49311161.29,67568.9181041,POINT (-73.9846503 40.7655263),927.4193548387096
307,3004,1010460009,55,C,1911,347 WEST 55TH STREET LLC,1,8.0,96,53952,40.7664102,-73.9855887,1010460009.0,1985,0,104,49311161.29,67568.9181041,POINT (-73.9855887 40.7664102),562.0
308,3030,1010530018,54,D,1900,KALABI REALTY CO,1,7.0,34,26009,40.7598181,-73.9932463,1010530018.0,1986,0,104,49311161.29,67568.9181041,POINT (-73.9932463 40.7598181),764.9705882352941
309,2976,1010390057,78,B,1910,344 W 49 ST,1,5.0,40,29085,40.7623868,-73.9888745,1010390057.0,1983,0,104,49311161.29,67568.9181041,POINT (-73.9888745 40.7623868),727.125
310,2996,1010450012,86,A,2001,BETA II LLC,1,7.0,109,84210,40.765617,-73.985643,1010450012.0,0,0,104,49311161.29,67568.9181041,POINT (-73.985643 40.765617),772.5688073394496
311,3044,1010580016,100,A,1901,"CLINTON HOUSING PRESERVATION, L.P.",1,4.0,39,35404,40.7629716,-73.9910223,1010580016.0,1984,0,104,49311161.29,67568.9181041,POINT (-73.9910223 40.7629716),907.7948717948718
312,3005,1010460013,91,A,1925,345 WEST 55 TH STREET TENANTS CORP,1,9.0,72,58662,40.7662784,-73.9852746,1010460013.0,1989,0,104,49311161.29,67568.9181041,POINT (-73.9852746 40.7662784),814.75
313,3006,1010460021,82,B,1912,"WEST 50TH ST ASSOC, LLC",1,8.0,36,43243,40.7660478,-73.984726,1010460021.0,1989,0,104,49311161.29,67568.9181041,POINT (-73.984726 40.7660478),1201.1944444444443
314,3040,1010560005,0,F,1995,"URBAN PATHWAYS, INC",1,6.0,55,30860,40.7621154,-73.9928887,1010560005.0,0,0,104,49311161.29,67568.9181041,POINT (-73.9928887 40.7621154),561.0909090909091
315,3111,1010777501,28,D,2013,UNAVAILABLE OWNER,2,7.0,110,91366,40.7646544,-73.9942602,1010777501.0,0,0,104,49311161.29,67568.9181041,POINT (-73.9942602 40.7646544),830.6
316,3047,1010610013,92,A,1900,KING ENTERPRISES LTD,3,5.0,45,31218,40.7649807,-73.9899643,1010610013.0,1988,0,104,49311161.29,67568.9181041,POINT (-73.9899643 40.7649807),693.7333333333333
317,3118,1010800010,58,C,1981,CLINTON MANOR ASSOCIATES,2,8.0,235,251512,40.7662352,-73.9925778,1010800010.0,0,0,104,49311161.29,67568.9181041,POINT (-73.9925778 40.7662352),1070.263829787234
318,3052,1010620019,82,B,1987,410 W 53 ST COMPANY,2,7.0,220,166518,40.7654829,-73.9886863,1010620019.0,0,0,104,49311161.29,67568.9181041,POINT (-73.9886863 40.7654829),756.9
319,3132,1010830037,60,C,2000,ASN FOUNDRY LLC,1,6.0,58,53472,40.7679752,-73.9904692,1010830037.0,0,0,104,49311161.29,67568.9181041,POINT (-73.9904692 40.7679752),921.9310344827586
320,3055,1010637501,56,C,1986,THE ABBEY CONDOMINIUM,1,6.0,34,27030,40.7662157,-73.9882457,1010637501.0,0,0,104,49311161.29,67568.9181041,POINT (-73.9882457 40.7662157),795.0
321,3060,1010647501,59,C,1986,NAME NOT ON FILE,1,7.0,29,31296,40.7670968,-73.9891481,1010647501.0,0,0,104,49311161.29,67568.9181041,POINT (-73.9891481 40.7670968),1079.1724137931035
322,3072,1010670018,88,A,1940,"425 REALTY CO., LLC",1,5.0,50,39210,40.7686473,-73.9867326,1010670018.0,1987,0,104,49311161.29,67568.9181041,POINT (-73.9867326 40.7686473),784.2
323,3079,1010677503,58,C,2008,UNAVAILABLE OWNER,1,10.0,67,85439,40.7693007,-73.9875556,1010677503.0,0,0,104,49311161.29,67568.9181041,POINT (-73.9875556 40.7693007),1275.2089552238806
324,3104,1010757501,49,D,2003,"CLINTON MEWS DEVELOPMENT GROUP, LLC",1,7.0,149,95905,40.7627715,-73.9940871,1010757501.0,0,0,104,49311161.29,67568.9181041,POINT (-73.9940871 40.7627715),643.6577181208054
325,3110,1010767501,66,C,2008,UNAVAILABLE OWNER,1,7.0,108,73634,40.7634164,-73.9936394,1010767501.0,0,0,104,49311161.29,67568.9181041,POINT (-73.9936394 40.7634164),681.7962962962963
326,3113,1010780008,32,D,1910,541 OPERATING CORP,1,6.0,66,30618,40.7650908,-73.9941193,1010780008.0,1959,0,104,49311161.29,67568.9181041,POINT (-73.9941193 40.7650908),463.90909090909093
327,3119,1010800030,86,A,2005,ENCORE WEST RESIDENCE HDFC,1,8.0,85,69540,40.7657191,-73.9914407,1010800030.0,0,0,104,49311161.29,67568.9181041,POINT (-73.9914407 40.7657191),818.1176470588235
328,3130,1010830015,21,D,1977,NYC HOUSING AUTHORITY,1,14.0,195,151769,40.7680823,-73.9910685,1010830015.0,2016,0,104,49311161.29,67568.9181041,POINT (-73.9910685 40.7680823),778.3025641025641
329,2966,1010360054,75,B,1900,PRIME CROSSTOWN HOLD,1,6.0,30,32520,40.7604107,-73.9900047,1010360054.0,1984,0,104,49311161.29,67568.9181041,POINT (-73.9900047 40.7604107),1084.0
330,2987,1010430005,23,D,1940,FAMECO LLC,1,6.0,48,37030,40.7646648,-73.9872785,1010430005.0,1984,0,104,49311161.29,67568.9181041,POINT (-73.9872785 40.7646648),771.4583333333334
331,3001,1010450054,82,B,1912,350 WEST ASSOCIATES LLC,1,9.0,126,75926,40.7659986,-73.9859787,1010450054.0,1988,0,104,49311161.29,67568.9181041,POINT (-73.9859787 40.7659986),602.5873015873016
332,3011,1010460054,41,D,1930,UNAVAILABLE OWNER,1,7.0,42,28034,40.7666545,-73.9854009,1010460054.0,0,0,104,49311161.29,67568.9181041,POINT (-73.9854009 40.7666545),667.4761904761905
333,3031,1010530044,93,A,1930,WESTSIDE 414 LLC,1,6.0,52,33250,40.7599498,-73.9928023,1010530044.0,0,0,104,49311161.29,67568.9181041,POINT (-73.9928023 40.7599498),639.4230769230769
334,3048,1010610016,60,C,1940,427 WEST 51 ST OWNERS CP,1,6.0,80,46914,40.7648544,-73.9896647,1010610016.0,1988,0,104,49311161.29,67568.9181041,POINT (-73.9896647 40.7648544),586.425
335,3049,1010617501,67,C,1950,UNAVAILABLE OWNER,1,7.0,55,41531,40.7651124,-73.989513,1010617501.0,0,2012,104,49311161.29,67568.9181041,POINT (-73.989513 40.7651124),755.1090909090909
336,3050,1010617502,0,F,1940,UNAVAILABLE OWNER,1,8.0,156,142970,40.7647885,-73.9890835,1010617502.0,2013,2013,104,49311161.29,67568.9181041,POINT (-73.9890835 40.7647885),916.474358974359
337,3054,1010630035,34,D,1993,UNAVAILABLE OWNER,1,10.0,99,80154,40.7660729,-73.9879389,1010630035.0,0,0,104,49311161.29,67568.9181041,POINT (-73.9879389 40.7660729),809.6363636363636
338,3058,1010640025,0,F,1910,54 C.F. OPERATING CORP,5,4.0,72,30200,40.7664269,-73.987585,1010640025.0,0,0,104,49311161.29,67568.9181041,POINT (-73.987585 40.7664269),419.44444444444446
339,3095,1010720050,83,B,2014,"CREF 546 WEST 44TH STREET, LLC",1,14.0,280,264451,40.7614019,-73.9965888,1010720050.0,0,0,104,49311161.29,67568.9181041,POINT (-73.9965888 40.7614019),944.4678571428572
340,1607,1007760017,82,B,1926,233 235 W 26TH OWNERS INC,1,9.0,20,47433,40.7468657,-73.9957486,1007760017.0,0,0,105,43790040.7095,35288.3343545,POINT (-73.9957486 40.7468657),2371.65
341,2260,1008567503,0,F,1912,UNAVAILABLE OWNER,1,20.0,69,151016,40.7433436,-73.9870047,1008567503.0,2006,2006,105,43790040.7095,35288.3343545,POINT (-73.9870047 40.7433436),2188.6376811594205
342,2517,1008867503,99,A,1988,LEXINGTON PARC CONDOMINIUM ASS,1,19.0,71,63418,40.7442624,-73.9818944,1008867503.0,0,0,105,43790040.7095,35288.3343545,POINT (-73.9818944 40.7442624),893.2112676056338
343,1912,1008167503,42,D,2008,UNAVAILABLE OWNER,1,10.0,47,59168,40.7374293,-73.9954714,1008167503.0,0,0,105,43790040.7095,35288.3343545,POINT (-73.9954714 40.7374293),1258.8936170212767
344,1920,1008180010,73,B,1911,43 WEST 16TH STREET LLC,1,12.0,95,64049,40.7385464,-73.9949986,1008180010.0,1986,0,105,43790040.7095,35288.3343545,POINT (-73.9949986 40.7385464),674.2
345,1619,1007790007,0,F,2015,FRIENDS HOUSE WEST HOUSING DEVELOPMENT F UND,1,14.0,14,28143,40.7490203,-73.9951061,1007790007.0,0,0,105,43790040.7095,35288.3343545,POINT (-73.9951061 40.7490203),2010.2142857142858
346,1921,1008180019,83,B,1851,27 WEST 16TH STREET LLC,1,7.0,75,41300,40.7383871,-73.9943743,1008180019.0,1986,0,105,43790040.7095,35288.3343545,POINT (-73.9943743 40.7383871),550.6666666666666
347,2422,1008730059,28,D,1950,61 IRVING PLACE CORPORATION,1,8.0,32,40904,40.7364515,-73.9873164,1008730059.0,1987,0,105,43790040.7095,35288.3343545,POINT (-73.9873164 40.7364515),1278.25
348,2475,1008800006,90,A,1939,PARK AVE GROUP EQUITIES LLC,1,6.0,43,26142,40.7408237,-73.9852297,1008800006.0,0,0,105,43790040.7095,35288.3343545,POINT (-73.9852297 40.7408237),607.953488372093
349,2486,1008820008,96,A,1900,111 EAST 26TH STREET REALTY,1,4.0,40,25596,40.7419791,-73.9841433,1008820008.0,1985,0,105,43790040.7095,35288.3343545,POINT (-73.9841433 40.7419791),639.9
350,2493,1008827502,5,D,1957,UNAVAILABLE OWNER,1,14.0,53,84285,40.7419515,-73.9833241,1008827502.0,2010,0,105,43790040.7095,35288.3343545,POINT (-73.9833241 40.7419515),1590.2830188679245
351,2516,1008867501,52,D,1984,PIERPONT CONDOMINIUM (THE),1,21.0,52,48547,40.744515,-73.9825115,1008867501.0,0,0,105,43790040.7095,35288.3343545,POINT (-73.9825115 40.744515),933.5961538461538
352,2518,1008870014,89,A,1930,JERRY WARTSKI & 125 EAST 31ST ST,1,12.0,96,58321,40.7449238,-73.9815442,1008870014.0,1988,0,105,43790040.7095,35288.3343545,POINT (-73.9815442 40.7449238),607.5104166666666
353,2243,1008510028,93,A,1938,33 EAST 22ND ST TENANTS CORP,1,5.0,40,32415,40.7400636,-73.98759,1008510028.0,1989,0,105,43790040.7095,35288.3343545,POINT (-73.98759 40.7400636),810.375
354,2408,1008710007,28,D,1900,UNAVAILABLE OWNER,1,10.0,71,37802,40.7352303,-73.9890486,1008710007.0,1986,0,105,43790040.7095,35288.3343545,POINT (-73.9890486 40.7352303),532.4225352112676
355,2470,1008790070,88,A,1939,ABI ONE LLC,1,6.0,60,40266,40.7403516,-73.985219,1008790070.0,0,0,105,43790040.7095,35288.3343545,POINT (-73.985219 40.7403516),671.1
356,2494,1008827503,89,A,1927,UNAVAILABLE OWNER,1,18.0,89,138699,40.7417182,-73.9835226,1008827503.0,2016,0,105,43790040.7095,35288.3343545,POINT (-73.9835226 40.7417182),1558.4157303370787
357,2839,1010100053,96,A,1916,152 W 58 ST OWNERS CORP,1,9.0,38,38928,40.7655748,-73.9786541,1010100053.0,0,0,105,43790040.7095,35288.3343545,POINT (-73.9786541 40.7655748),1024.421052631579
358,2923,1010277504,28,D,2002,UNAVAILABLE OWNER,1,53.0,107,181683,40.765246,-73.982488,1010277504.0,0,0,105,43790040.7095,35288.3343545,POINT (-73.982488 40.765246),1697.9719626168223
359,2322,1008620009,82,B,1930,7-9 E. 32 LLC,1,9.0,77,39740,40.7470405,-73.9846545,1008620009.0,0,0,105,43790040.7095,35288.3343545,POINT (-73.9846545 40.7470405),516.1038961038961
360,2357,1008650007,44,D,1979,7 EAST 35TH STREET OWNERS INC,1,17.0,58,64598,40.7489753,-73.9831924,1008650007.0,1987,0,105,43790040.7095,35288.3343545,POINT (-73.9831924 40.7489753),1113.7586206896551
361,2507,1008847501,73,B,1920,UNAVAILABLE OWNER,1,9.0,25,45634,40.7433018,-73.9826886,1008847501.0,2004,2004,105,43790040.7095,35288.3343545,POINT (-73.9826886 40.7433018),1825.36
362,2943,1010307501,85,A,2015,UNAVAILABLE OWNER,1,70.0,117,396613,40.7669584,-73.980567,1010307501.0,0,0,105,43790040.7095,35288.3343545,POINT (-73.980567 40.7669584),3389.8547008547007
363,3950,1012697501,65,C,1982,MUSEUM TOWER CONDOMINIUM,1,52.0,246,404693,40.7613751,-73.9774931,1012697501.0,0,0,105,43790040.7095,35288.3343545,POINT (-73.9774931 40.7613751),1645.0934959349593
364,3952,1012700008,92,A,1948,45 W 54 CORP,1,12.0,50,61584,40.7622397,-73.9776516,1012700008.0,1986,0,105,43790040.7095,35288.3343545,POINT (-73.9776516 40.7622397),1231.68
365,3953,1012700017,83,B,1939,REGENT HOUSE TENANTS CORP,1,11.5,70,72845,40.7619459,-73.9769586,1012700017.0,0,0,105,43790040.7095,35288.3343545,POINT (-73.9769586 40.7619459),1040.642857142857
366,2417,1008720050,97,A,1910,R.A.S. REALTY LLC,1,6.0,44,29796,40.7352822,-73.9865156,1008720050.0,1987,0,106,38733647.9163,43163.8363076,POINT (-73.9865156 40.7352822),677.1818181818181
367,2442,1008760018,78,B,1883,THE GRAMERCY CO,1,10.0,45,80000,40.737368,-73.9849599,1008760018.0,1988,0,106,38733647.9163,43163.8363076,POINT (-73.9849599 40.737368),1777.7777777777778
368,2444,1008767503,49,D,1910,UNAVAILABLE OWNER,1,12.0,46,55072,40.7375574,-73.9849346,1008767503.0,0,0,106,38733647.9163,43163.8363076,POINT (-73.9849346 40.7375574),1197.2173913043478
369,2446,1008770013,15,D,1924,"50 GRAMERCY PARK INVESTORS, LLC",1,17.0,21,65480,40.738628,-73.9860602,1008770013.0,2005,0,106,38733647.9163,43163.8363076,POINT (-73.9860602 40.738628),3118.095238095238
370,2487,1008820028,96,A,1939,"NAGEL PARTNERS, LP",1,6.0,77,52092,40.7416303,-73.9828659,1008820028.0,0,0,106,38733647.9163,43163.8363076,POINT (-73.9828659 40.7416303),676.5194805194806
371,2490,1008820056,55,C,1930,27 D REALTY LLC,1,7.0,42,30777,40.7415616,-73.9823968,1008820056.0,0,0,106,38733647.9163,43163.8363076,POINT (-73.9823968 40.7415616),732.7857142857143
372,2545,1008900057,94,A,1912,YESHIVA UNIVERSITY,1,9.0,27,35905,40.7465756,-73.9786529,1008900057.0,1997,2004,106,38733647.9163,43163.8363076,POINT (-73.9786529 40.7465756),1329.8148148148148
373,2617,1009020051,90,A,1982,"210-220 E. 22ND STREET SSGA OWNER, LLC",1,8.0,88,49207,40.7377163,-73.9831375,1009020051.0,0,0,106,38733647.9163,43163.8363076,POINT (-73.9831375 40.7377163),559.1704545454545
374,2654,1009117501,93,A,1925,GREENTREE AT MURRAY HILL MATTHEW ADAM PROPERTIES,1,9.0,30,42035,40.7429085,-73.9779071,1009117501.0,1981,0,106,38733647.9163,43163.8363076,POINT (-73.9779071 40.7429085),1401.1666666666667
375,2665,1009150046,83,B,1942,GREGORY HOUSE OWNERS CORP,1,6.0,59,50796,40.7457546,-73.9767044,1009150046.0,1988,0,106,38733647.9163,43163.8363076,POINT (-73.9767044 40.7457546),860.9491525423729
376,2677,1009180007,70,B,1925,EAST 37TH STREET LLC,1,6.0,48,36020,40.7475632,-73.9759928,1009180007.0,1989,0,106,38733647.9163,43163.8363076,POINT (-73.9759928 40.7475632),750.4166666666666
377,2692,1009220070,0,F,1963,BETH ISRAEL MEDICAL CENTER,1,19.0,148,98260,40.7332559,-73.9817206,1009220070.0,0,0,106,38733647.9163,43163.8363076,POINT (-73.9817206 40.7332559),663.918918918919
378,2721,1009340015,54,D,1979,SITE 10 COMMUNITY ALLIANCE ASSOC,2,15.0,224,165739,40.7407921,-73.9769984,1009340015.0,0,0,106,38733647.9163,43163.8363076,POINT (-73.9769984 40.7407921),739.90625
379,2365,1008657501,35,D,1985,THE MORGAN COURT CONDOMINIUM,1,22.0,40,64660,40.7486704,-73.9819654,1008657501.0,0,0,106,38733647.9163,43163.8363076,POINT (-73.9819654 40.7486704),1616.5
380,2500,1008830058,26,D,1931,140 E 28 ST OWNRS CORP.,1,13.0,107,98359,40.7421681,-73.9819094,1008830058.0,1989,0,106,38733647.9163,43163.8363076,POINT (-73.9819094 40.7421681),919.2429906542056
381,2526,1008880031,61,C,1920,153 EAST 32ND STREET LLC,1,9.0,71,62188,40.7450497,-73.9796459,1008880031.0,1981,0,106,38733647.9163,43163.8363076,POINT (-73.9796459 40.7450497),875.887323943662
382,2554,1008910062,97,A,1916,138 APT CORPORATION,1,10.0,31,40966,40.7472782,-73.9784109,1008910062.0,1981,0,106,38733647.9163,43163.8363076,POINT (-73.9784109 40.7472782),1321.483870967742
383,2584,1008950031,45,D,1930,13539 OWNERS CORP,1,6.0,29,26070,40.7495204,-73.976768,1008950031.0,1986,0,106,38733647.9163,43163.8363076,POINT (-73.976768 40.7495204),898.9655172413793
384,2595,1008960032,64,C,1961,RUTHERFORD TENANTS CORP,1,14.0,175,116191,40.733229,-73.9855093,1008960032.0,1989,0,106,38733647.9163,43163.8363076,POINT (-73.9855093 40.733229),663.9485714285714
385,2596,1008960039,59,C,1963,210 EAST 15TH STREET TENANTS CORP,1,14.0,188,136191,40.7334596,-73.9860541,1008960039.0,1987,0,106,38733647.9163,43163.8363076,POINT (-73.9860541 40.7334596),724.4202127659574
386,2632,1009060015,69,C,1900,PRAIRIE OCEAN REALTY LLC,3,5.0,60,32070,40.7397361,-73.9807373,1009060015.0,0,0,106,38733647.9163,43163.8363076,POINT (-73.9807373 40.7397361),534.5
387,2646,1009090015,11,D,1962,229 EAST 28 ST OWNERS CORP,1,7.0,84,44912,40.7415776,-73.9793546,1009090015.0,1986,0,106,38733647.9163,43163.8363076,POINT (-73.9793546 40.7415776),534.6666666666666
388,2649,1009100014,94,A,1940,229 E 29 OWNERS CORP,1,6.0,113,55737,40.7422939,-73.9791415,1009100014.0,1986,0,106,38733647.9163,43163.8363076,POINT (-73.9791415 40.7422939),493.24778761061947
389,2686,1009200013,78,B,2015,"GEMINI RESIDENTIAL, LLC",1,36.0,372,373248,40.7487075,-73.9745054,1009200013.0,2014,0,106,38733647.9163,43163.8363076,POINT (-73.9745054 40.7487075),1003.3548387096774
390,2437,1008750055,86,A,1901,26 GRAMMERCY PK OWNERS CORP,1,10.0,78,48234,40.7370607,-73.9856564,1008750055.0,1985,0,106,38733647.9163,43163.8363076,POINT (-73.9856564 40.7370607),618.3846153846154
391,2448,1008770022,82,B,1910,1 LEX AVE CP,1,12.0,28,75379,40.7383534,-73.9853205,1008770022.0,0,0,106,38733647.9163,43163.8363076,POINT (-73.9853205 40.7383534),2692.1071428571427
392,2459,1008780028,86,A,1940,"JERULEE CO., LLC",1,6.0,48,32610,40.7386579,-73.9842307,1008780028.0,0,0,106,38733647.9163,43163.8363076,POINT (-73.9842307 40.7386579),679.375
393,2712,1009290050,33,D,1975,BETH ISRAEL MEDICAL CTR INC,1,6.0,70,44835,40.7380314,-73.9797671,1009290050.0,0,0,106,38733647.9163,43163.8363076,POINT (-73.9797671 40.7380314),640.5
394,2716,1009310017,94,A,2015,KB25 HOUSING DEVELOPMENT FUND CORPORATIO N,1,9.0,56,63804,40.7387805,-73.9785039,1009310017.0,0,0,106,38733647.9163,43163.8363076,POINT (-73.9785039 40.7387805),1139.357142857143
395,2489,1008820052,84,B,1960,GOTHAM HOUSE OWNERS CORP,1,7.0,62,47000,40.7414573,-73.9821514,1008820052.0,1989,0,106,38733647.9163,43163.8363076,POINT (-73.9821514 40.7414573),758.0645161290323
396,2738,1009430001,98,A,1941,303 EAST 37TH ST OWNERS CORP,1,6.0,83,80000,40.7467421,-73.9739865,1009430001.0,0,0,106,38733647.9163,43163.8363076,POINT (-73.9739865 40.7467421),963.855421686747
397,4255,1013200018,42,D,1938,BERDAR EQUITIES LLC,1,6.0,63,49914,40.7528347,-73.9708512,1013200018.0,1988,0,106,38733647.9163,43163.8363076,POINT (-73.9708512 40.7528347),792.2857142857143
398,2503,1008840027,66,C,1927,28 ST TENANTS CORP,1,9.0,37,28617,40.742643,-73.981884,1008840027.0,1986,0,106,38733647.9163,43163.8363076,POINT (-73.981884 40.742643),773.4324324324324
399,2433,1008750008,95,A,1920,105 EAST 19 STR APT CORP,1,6.0,22,26263,40.7376455,-73.9873955,1008750008.0,1984,0,106,38733647.9163,43163.8363076,POINT (-73.9873955 40.7376455),1193.7727272727273
400,4318,1013330018,56,C,1956,NAUTILUS TUDOR LLC,1,14.0,334,336543,40.7482951,-73.9716436,1013330018.0,0,0,106,38733647.9163,43163.8363076,POINT (-73.9716436 40.7482951),1007.6137724550898
401,4323,1013340010,70,B,1929,ESSEX OWNERS CORP,1,10.5,94,110934,40.748973,-73.9716721,1013340010.0,1985,0,106,38733647.9163,43163.8363076,POINT (-73.9716721 40.748973),1180.1489361702127
402,4326,1013340041,74,B,1929,WOODSTOCK OWNERS CORP,1,32.0,459,261401,40.749209,-73.9714808,1013340041.0,0,0,106,38733647.9163,43163.8363076,POINT (-73.9714808 40.749209),569.5010893246188
403,2511,1008850066,91,A,1945,3GR/151 LLC,2,10.0,53,28240,40.7435102,-73.981476,1008850066.0,1981,0,106,38733647.9163,43163.8363076,POINT (-73.981476 40.7435102),532.8301886792453
404,2438,1008750056,91,A,1909,24 GRAMERCY PARK INC,1,12.0,19,49015,40.7372061,-73.9857249,1008750056.0,0,0,106,38733647.9163,43163.8363076,POINT (-73.9857249 40.7372061),2579.7368421052633
405,2515,1008860063,24,D,2002,LEXINGTON HDFC,1,12.0,41,42000,40.7441524,-73.9809525,1008860063.0,0,0,106,38733647.9163,43163.8363076,POINT (-73.9809525 40.7441524),1024.3902439024391
406,4386,1013460014,84,B,1930,333 EAST 53RD TENANTS CORP,1,13.0,163,118694,40.7563548,-73.9656087,1013460014.0,1985,0,106,38733647.9163,43163.8363076,POINT (-73.9656087 40.7563548),728.1840490797546
407,2505,1008840042,25,D,2004,"SENIOR LIVING OPTIONS, INC",1,16.0,30,35107,40.742393,-73.9809999,1008840042.0,0,0,106,38733647.9163,43163.8363076,POINT (-73.9809999 40.742393),1170.2333333333333
408,4435,1013630016,90,A,1925,BEEKMAN MANSION INC,1,10.0,36,73095,40.7540679,-73.9640975,1013630016.0,1980,0,106,38733647.9163,43163.8363076,POINT (-73.9640975 40.7540679),2030.4166666666667
409,4439,1013630037,76,B,1930,SOUTHGATE OWNERS CORP,1,13.0,81,88181,40.7544138,-73.9641298,1013630037.0,1988,0,106,38733647.9163,43163.8363076,POINT (-73.9641298 40.7544138),1088.6543209876543
410,4457,1013670026,84,B,1953,20 SUTTON PL SOUTH INC,1,20.0,88,155938,40.7566417,-73.9616525,1013670026.0,1987,0,106,38733647.9163,43163.8363076,POINT (-73.9616525 40.7566417),1772.0227272727273
411,2529,1008880055,92,A,1927,142 EAST 33RD ST RLTY,1,6.0,48,26280,40.7453352,-73.9798767,1008880055.0,0,0,106,38733647.9163,43163.8363076,POINT (-73.9798767 40.7453352),547.5
412,2575,1008940032,79,B,1936,137 EAST 38TH STREET,1,13.0,108,105000,40.7488013,-73.9770173,1008940032.0,1983,0,106,38733647.9163,43163.8363076,POINT (-73.9770173 40.7488013),972.2222222222222
413,2548,1008910023,57,C,1924,MURRAY HILL OWNERS CORP,1,12.0,35,35734,40.7474925,-73.9792878,1008910023.0,1980,0,106,38733647.9163,43163.8363076,POINT (-73.9792878 40.7474925),1020.9714285714285
414,2630,1009050035,87,A,2004,242 EAST 25TH STREET CORP.,1,13.0,54,48020,40.7391679,-73.9805498,1009050035.0,0,0,106,38733647.9163,43163.8363076,POINT (-73.9805498 40.7391679),889.2592592592592
415,2640,1009080017,11,D,1965,NYC HOUSING AUTHORITY,1,20.0,156,138623,40.7411522,-73.9797986,1009080017.0,0,0,106,38733647.9163,43163.8363076,POINT (-73.9797986 40.7411522),888.6089743589744
416,2641,1009080027,11,D,1965,NYC HOUSING AUTHORITY,1,19.0,111,89282,40.7407596,-73.979326,1009080027.0,0,0,106,38733647.9163,43163.8363076,POINT (-73.979326 40.7407596),804.3423423423424
417,2579,1008947501,65,C,1924,77 PARK AVE CONDO,1,14.0,106,110958,40.7498391,-73.9786807,1008947501.0,0,0,106,38733647.9163,43163.8363076,POINT (-73.9786807 40.7498391),1046.7735849056603
418,2642,1009080047,82,B,1940,208 E 28 OWNERS CORP,1,6.0,70,50000,40.7414954,-73.9803182,1009080047.0,1986,0,106,38733647.9163,43163.8363076,POINT (-73.9803182 40.7414954),714.2857142857143
419,2648,1009090043,82,B,1910,J & H REALTY,2,6.0,82,41094,40.7418548,-73.9792535,1009090043.0,1985,2017,106,38733647.9163,43163.8363076,POINT (-73.9792535 40.7418548),501.1463414634146
420,2661,1009140011,42,D,1900,221-227 EAST 33RD STREET LLC,1,6.0,45,35508,40.7447858,-73.9773832,1009140011.0,1981,0,106,38733647.9163,43163.8363076,POINT (-73.9773832 40.7447858),789.0666666666667
421,2696,1009250060,68,C,1948,304 EAST 20TH STREET LLC,1,8.0,70,56310,40.7356109,-73.9818571,1009250060.0,1979,0,106,38733647.9163,43163.8363076,POINT (-73.9818571 40.7356109),804.4285714285714
422,2736,1009400048,72,B,1959,320 EAST 35TH STREET,1,6.0,51,30000,40.7447715,-73.9743914,1009400048.0,0,0,106,38733647.9163,43163.8363076,POINT (-73.9743914 40.7447715),588.2352941176471
423,2678,1009180025,41,D,1942,24537 OWNERS CORP C/O ABC REALTY,1,6.0,47,45300,40.747014,-73.9746215,1009180025.0,0,0,106,38733647.9163,43163.8363076,POINT (-73.9746215 40.747014),963.8297872340426
424,2434,1008750019,94,A,1930,IRVING TENANTS CORP,1,16.0,102,72501,40.7372968,-73.986728,1008750019.0,0,0,106,38733647.9163,43163.8363076,POINT (-73.986728 40.7372968),710.7941176470588
425,2435,1008750025,58,C,1950,IRVING EQUITIES INC,1,6.0,42,28500,40.7371239,-73.9861074,1008750025.0,1986,0,106,38733647.9163,43163.8363076,POINT (-73.9861074 40.7371239),678.5714285714286
426,2699,1009270009,54,D,1967,315 EAST 21ST STREETCO.,1,7.0,76,44919,40.7364259,-73.9808357,1009270009.0,0,0,106,38733647.9163,43163.8363076,POINT (-73.9808357 40.7364259),591.0394736842105
427,2718,1009330025,18,D,1970,NYC HOUSING AUTHORITY,1,26.0,225,218666,40.7399467,-73.9769879,1009330025.0,2012,0,106,38733647.9163,43163.8363076,POINT (-73.9769879 40.7399467),971.8488888888888
428,2727,1009357501,89,A,1956,THE 350 CONDOMINIUM,1,6.0,128,82420,40.7410966,-73.9759193,1009357501.0,0,0,106,38733647.9163,43163.8363076,POINT (-73.9759193 40.7410966),643.90625
429,2572,1008930066,64,C,1925,305 LEXINGTON ASSOCIATES LLC,1,13.0,50,42231,40.7485544,-73.9777969,1008930066.0,1983,0,106,38733647.9163,43163.8363076,POINT (-73.9777969 40.7485544),844.62
430,2610,1009007501,47,D,1920,UNAVAILABLE OWNER,4,18.0,223,356537,40.736215,-73.9836322,1009007501.0,2013,0,106,38733647.9163,43163.8363076,POINT (-73.9836322 40.736215),1598.8206278026905
431,2611,1009010021,8,D,1929,237 EAST 20,1,10.0,72,74120,40.7364482,-73.9827373,1009010021.0,0,0,106,38733647.9163,43163.8363076,POINT (-73.9827373 40.7364482),1029.4444444444443
432,2659,1009130014,93,A,1925,32 REALTY LLC,1,6.0,53,38918,40.7440969,-73.9776721,1009130014.0,1987,0,106,38733647.9163,43163.8363076,POINT (-73.9776721 40.7440969),734.3018867924528
433,2668,1009160009,75,B,1929,MIDTOWN MANOR APTS LTD,1,10.0,76,57834,40.7462981,-73.9768377,1009160009.0,1969,0,106,38733647.9163,43163.8363076,POINT (-73.9768377 40.7462981),760.9736842105264
434,2714,1009300012,55,C,1975,EAST MIDTOWN PLAZA,2,28.0,236,265541,40.7383799,-73.9791571,1009300012.0,0,0,106,38733647.9163,43163.8363076,POINT (-73.9791571 40.7383799),1125.1737288135594
435,4159,1013040029,62,C,1924,STEVEN M WEISMAN,1,10.0,71,43796,40.7556785,-73.971774,1013040029.0,1986,0,106,38733647.9163,43163.8363076,POINT (-73.971774 40.7556785),616.8450704225352
436,4257,1013207501,45,D,1982,DAG HAMMARSKJOLD TOWER C/O BHS,1,43.0,230,256015,40.7528565,-73.9704325,1013207501.0,0,0,106,38733647.9163,43163.8363076,POINT (-73.9704325 40.7528565),1113.108695652174
437,4276,1013240009,62,C,1957,221 E 50 ST OWNERS I,1,8.0,47,35840,40.755656,-73.9697996,1013240009.0,0,0,106,38733647.9163,43163.8363076,POINT (-73.9697996 40.755656),762.5531914893617
438,4341,1013380012,44,D,1960,"321 EAST 45TH STREET OWNERS, INC.",1,13.0,112,58500,40.7514537,-73.9695236,1013380012.0,1985,0,106,38733647.9163,43163.8363076,POINT (-73.9695236 40.7514537),522.3214285714286
439,4378,1013447501,67,C,1963,THE SENATE EAST CONDOMINIUM,1,14.0,97,49892,40.7551089,-73.9665477,1013447501.0,0,0,106,38733647.9163,43163.8363076,POINT (-73.9665477 40.7551089),514.3505154639175
440,4382,1013450031,76,B,1958,342 E 53 OWNERS INC,1,7.0,51,32000,40.755814,-73.9655187,1013450031.0,1986,0,106,38733647.9163,43163.8363076,POINT (-73.9655187 40.755814),627.4509803921569
441,4391,1013470009,95,A,1929,321 APARTMENTS CORP,1,10.0,102,58377,40.7571864,-73.9656551,1013470009.0,0,0,106,38733647.9163,43163.8363076,POINT (-73.9656551 40.7571864),572.3235294117648
442,4393,1013470018,28,D,1960,345 EAST 54TH OWNERS CORP,1,7.0,59,37732,40.7568788,-73.9649226,1013470018.0,0,0,106,38733647.9163,43163.8363076,POINT (-73.9649226 40.7568788),639.5254237288135
443,4396,1013470044,84,B,1932,UNAVAILABLE OWNER,1,13.0,82,62287,40.7574993,-73.9656333,1013470044.0,0,0,106,38733647.9163,43163.8363076,POINT (-73.9656333 40.7574993),759.5975609756098
444,4403,1013490032,95,A,1932,350 E 57 ST CORP-C/O BHS,1,15.0,34,75512,40.7583771,-73.963745,1013490032.0,1988,0,106,38733647.9163,43163.8363076,POINT (-73.963745 40.7583771),2220.9411764705883
445,4424,1013610012,71,B,1931,2 BEEKMAN PLACE OWNERS,1,18.0,98,125000,40.7530363,-73.9653216,1013610012.0,0,0,106,38733647.9163,43163.8363076,POINT (-73.9653216 40.7530363),1275.5102040816328
446,4436,1013630020,56,C,1930,BEEKMAN TERRACE INC,1,6.0,38,47242,40.7538976,-73.963697,1013630020.0,1988,0,106,38733647.9163,43163.8363076,POINT (-73.963697 40.7538976),1243.2105263157894
447,4456,1013670020,57,C,1948,36 SUTTON SOUTH CORP,1,17.0,102,147000,40.7564002,-73.9618511,1013670020.0,0,0,106,38733647.9163,43163.8363076,POINT (-73.9618511 40.7564002),1441.1764705882354
448,4465,1013680039,72,B,1925,424 E 57TH ST TENANTS CORP,1,6.0,27,29376,40.7576767,-73.9621897,1013680039.0,1984,0,106,38733647.9163,43163.8363076,POINT (-73.9621897 40.7576767),1088.0
449,4267,1013210042,67,C,1924,48TH ST OWNERS CORP,1,9.0,46,51576,40.7540562,-73.9710492,1013210042.0,0,0,106,38733647.9163,43163.8363076,POINT (-73.9710492 40.7540562),1121.2173913043478
450,4483,1013720002,85,A,1926,SUTTON PLACE SOUTH CORP-C/OB.H.S.,1,13.0,43,231680,40.756828,-73.9605442,1013720002.0,0,0,106,38733647.9163,43163.8363076,POINT (-73.9605442 40.756828),5387.906976744186
451,4297,1013290035,75,B,1910,MIDTOWN EAST 56 LLC,1,5.0,60,30635,40.7588886,-73.9669862,1013290035.0,0,0,106,38733647.9163,43163.8363076,POINT (-73.9669862 40.7588886),510.5833333333333
452,4329,1013350039,83,B,1928,330 E 43RD ST. LLC,1,10.0,62,48892,40.7498127,-73.9707009,1013350039.0,1985,0,106,38733647.9163,43163.8363076,POINT (-73.9707009 40.7498127),788.5806451612904
453,4331,1013360010,65,C,1928,CLOISTER OWNERS CORP,1,10.0,143,94516,40.7502381,-73.9705022,1013360010.0,0,0,106,38733647.9163,43163.8363076,POINT (-73.9705022 40.7502381),660.951048951049
454,4368,1013430005,61,C,1962,GREAT BAY BLDG CO.,1,14.0,111,71137,40.7548293,-73.9678256,1013430005.0,0,0,106,38733647.9163,43163.8363076,POINT (-73.9678256 40.7548293),640.8738738738739
455,4390,1013467501,41,D,1959,320 EAST 54TH ST CONDO,1,12.0,90,61630,40.7567967,-73.9658972,1013467501.0,0,0,106,38733647.9163,43163.8363076,POINT (-73.9658972 40.7567967),684.7777777777778
456,4392,1013470014,92,A,1950,UNAVAILABLE OWNER,1,5.0,49,26810,40.7570299,-73.9652834,1013470014.0,0,0,106,38733647.9163,43163.8363076,POINT (-73.9652834 40.7570299),547.1428571428571
457,4401,1013490009,94,A,1950,315 EAST 56TH OWNERS CORP,1,6.0,55,45000,40.7584048,-73.9646871,1013490009.0,1985,0,106,38733647.9163,43163.8363076,POINT (-73.9646871 40.7584048),818.1818181818181
458,4406,1013490044,83,B,1928,320 57 CORP,1,15.0,96,110000,40.7587616,-73.9647483,1013490044.0,1978,0,106,38733647.9163,43163.8363076,POINT (-73.9647483 40.7587616),1145.8333333333333
459,4411,1013500011,98,A,1929,325 TENANTS CORP - C\O B.H.S. MGMNT,1,15.0,62,92593,40.7590908,-73.9640551,1013500011.0,1988,0,106,38733647.9163,43163.8363076,POINT (-73.9640551 40.7590908),1493.4354838709678
460,4418,1013510017,96,A,1930,339 EAST 58TH STREET OWNERS CORP,1,11.0,102,77102,40.7595324,-73.9631488,1013510017.0,0,0,106,38733647.9163,43163.8363076,POINT (-73.9631488 40.7595324),755.9019607843137
461,4433,1013630008,89,A,1928,BEEKMAN HILL HOUSE APT CORP,1,9.0,69,73676,40.7543289,-73.9647182,1013630008.0,1987,0,106,38733647.9163,43163.8363076,POINT (-73.9647182 40.7543289),1067.768115942029
462,4434,1013630012,76,B,1930,SOUTHGATE OWNERS CORP,1,13.0,81,93999,40.7541943,-73.964397,1013630012.0,0,0,106,38733647.9163,43163.8363076,POINT (-73.964397 40.7541943),1160.4814814814815
463,4438,1013630031,76,B,1930,SOUTHGATE OWNERS CORP,1,13.0,71,86182,40.7542764,-73.9638122,1013630031.0,1988,0,106,38733647.9163,43163.8363076,POINT (-73.9638122 40.7542764),1213.8309859154929
464,4467,1013687501,60,C,1929,444 E 57TH ST CONDOMINIUM,1,14.0,60,74683,40.757347,-73.9614752,1013687501.0,0,0,106,38733647.9163,43163.8363076,POINT (-73.9614752 40.757347),1244.7166666666667
465,4471,1013690016,97,A,1928,447 EAST 57TH ST CORP,1,15.0,23,71784,40.7579069,-73.9612403,1013690016.0,0,0,106,38733647.9163,43163.8363076,POINT (-73.9612403 40.7579069),3121.0434782608695
466,4472,1013690019,90,A,1928,455 EAST 57TH ST INC,1,16.0,47,91617,40.7578025,-73.9609949,1013690019.0,1988,0,106,38733647.9163,43163.8363076,POINT (-73.9609949 40.7578025),1949.2978723404256
467,4473,1013690026,92,A,1960,"WALTER & SAMUELS, INC.",1,20.0,56,125800,40.7579643,-73.9606085,1013690026.0,1987,0,106,38733647.9163,43163.8363076,POINT (-73.9606085 40.7579643),2246.4285714285716
468,4477,1013700021,78,B,1929,30 SUTTON PL CORP - B.H.S. (30000),1,14.0,56,127293,40.7583704,-73.9603231,1013700021.0,0,0,106,38733647.9163,43163.8363076,POINT (-73.9603231 40.7583704),2273.089285714286
469,4273,1013230036,84,B,1927,230 TENANTS CORP,1,11.0,43,53694,40.7551565,-73.9697601,1013230036.0,0,0,106,38733647.9163,43163.8363076,POINT (-73.9697601 40.7551565),1248.6976744186047
470,4437,1013630027,92,A,1929,444 OWNERS CORP,1,11.0,51,72865,40.7541473,-73.9635091,1013630027.0,1988,0,106,38733647.9163,43163.8363076,POINT (-73.9635091 40.7541473),1428.7254901960785
471,4458,1013670031,98,A,1955,SUTTON MANOR APARTMENT INC,1,13.0,82,90000,40.756812,-73.9620603,1013670031.0,1989,0,106,38733647.9163,43163.8363076,POINT (-73.9620603 40.756812),1097.560975609756
472,4469,1013690007,88,A,1927,419 APT CORP,1,15.0,92,128114,40.7581926,-73.9619223,1013690007.0,0,0,106,38733647.9163,43163.8363076,POINT (-73.9619223 40.7581926),1392.5434782608695
473,4253,1013197501,82,B,1970,THE 240 EAST 46TH STREET CONDOMINIUM,1,13.0,100,50504,40.752467,-73.9711618,1013197501.0,0,0,106,38733647.9163,43163.8363076,POINT (-73.9711618 40.752467),505.04
474,4279,1013240042,69,C,1927,"SUPREME COMPANY I,",1,6.0,65,28458,40.7559305,-73.9696515,1013240042.0,1984,0,106,38733647.9163,43163.8363076,POINT (-73.9696515 40.7559305),437.81538461538463
475,4295,1013280030,88,A,1963,MAROLDA PROPERTIES INC,1,14.0,99,68225,40.7580981,-73.9670516,1013280030.0,0,0,106,38733647.9163,43163.8363076,POINT (-73.9670516 40.7580981),689.1414141414141
476,4298,1013297501,69,C,2001,UNAVAILABLE OWNER,1,46.0,40,34111,40.7585619,-73.9669683,1013297501.0,0,0,106,38733647.9163,43163.8363076,POINT (-73.9669683 40.7585619),852.775
477,4320,1013330042,67,C,1929,304-324 OWNERS CORP,3,10.0,200,128798,40.7486822,-73.9721054,1013330042.0,0,0,106,38733647.9163,43163.8363076,POINT (-73.9721054 40.7486822),643.99
478,4324,1013340013,63,C,1926,333 EAST FORTY FIRST STREET CORPORATION,1,6.0,28,29040,40.7488192,-73.9713077,1013340013.0,1983,0,106,38733647.9163,43163.8363076,POINT (-73.9713077 40.7488192),1037.142857142857
479,4358,1013410044,73,B,1959,310 E 49TH OWNERS CORP,1,13.0,102,60043,40.7537425,-73.9683712,1013410044.0,1986,0,106,38733647.9163,43163.8363076,POINT (-73.9683712 40.7537425),588.656862745098
480,4373,1013437504,39,D,1900,UNAVAILABLE OWNER,1,7.0,23,33652,40.7543816,-73.9667647,1013437504.0,1988,2007,106,38733647.9163,43163.8363076,POINT (-73.9667647 40.7543816),1463.1304347826087
481,4395,1013470042,49,D,1958,FAMECO LLC,1,7.0,41,25040,40.7574169,-73.9654348,1013470042.0,0,0,106,38733647.9163,43163.8363076,POINT (-73.9654348 40.7574169),610.7317073170732
482,4413,1013500020,86,A,1928,34557 CORPORATION,1,16.0,60,89349,40.7587694,-73.9632936,1013500020.0,0,0,106,38733647.9163,43163.8363076,POINT (-73.9632936 40.7587694),1489.15
483,4414,1013500035,63,C,1939,TRAFALGAR 58 LLC,1,5.0,34,30225,40.7591757,-73.9634847,1013500035.0,0,0,106,38733647.9163,43163.8363076,POINT (-73.9634847 40.7591757),888.9705882352941
484,4428,1013620012,91,A,1957,2O BEEKMAN PLACE,1,13.0,79,98808,40.7535933,-73.9649026,1013620012.0,0,0,106,38733647.9163,43163.8363076,POINT (-73.9649026 40.7535933),1250.73417721519
485,4429,1013620038,96,A,1931,30 BEEKMAN PL CORP,1,10.0,38,67167,40.7538485,-73.9647509,1013620038.0,1986,0,106,38733647.9163,43163.8363076,POINT (-73.9647509 40.7538485),1767.5526315789473
486,4430,1013620041,27,D,1962,KAL BROTHERS LLC,1,13.0,110,155000,40.7540298,-73.9651587,1013620041.0,1987,0,106,38733647.9163,43163.8363076,POINT (-73.9651587 40.7540298),1409.090909090909
487,4440,1013630040,76,B,1931,SOUTHGATE OWNERS CORP,1,13.0,84,102422,40.7545539,-73.9644618,1013630040.0,1988,0,106,38733647.9163,43163.8363076,POINT (-73.9644618 40.7545539),1219.3095238095239
488,4459,1013670035,95,A,1955,SUTTON MANOR APTS  IN,1,13.0,82,90000,40.7569851,-73.9624716,1013670035.0,1989,0,106,38733647.9163,43163.8363076,POINT (-73.9624716 40.7569851),1097.560975609756
489,4463,1013680024,92,A,1929,14 SUTTON TENANTS CORP C/O BHS,1,14.0,93,161462,40.7570287,-73.961497,1013680024.0,1987,0,106,38733647.9163,43163.8363076,POINT (-73.961497 40.7570287),1736.1505376344087
490,4475,1013697501,84,B,1986,420 EAST 58TH ST CONDO,1,27.0,75,63426,40.7584093,-73.9616623,1013697501.0,0,0,106,38733647.9163,43163.8363076,POINT (-73.9616623 40.7584093),845.68
491,3186,1011170039,78,B,1939,10 WEST 65 OWNER LLC,1,6.0,86,82230,40.771973,-73.9802658,1011170039.0,0,0,107,53152583.3845,39863.7026496,POINT (-73.9802658 40.771973),956.1627906976744
492,3200,1011190047,0,F,1929,40 W. 67TH ST. CORP.,1,10.0,39,56245,40.7734194,-73.979796,1011190047.0,1988,0,107,53152583.3845,39863.7026496,POINT (-73.979796 40.7734194),1442.179487179487
493,3218,1011220022,88,A,1916,"PIERRE CONGRESS APARTMENTS,",1,14.0,83,42642,40.7748821,-73.9782034,1011220022.0,1968,0,107,53152583.3845,39863.7026496,POINT (-73.9782034 40.7748821),513.7590361445783
494,3226,1011240021,88,A,1923,17 WEST APARTMENTS CORP,1,9.0,38,71907,40.7761061,-73.9772281,1011240021.0,1989,0,107,53152583.3845,39863.7026496,POINT (-73.9772281 40.7761061),1892.2894736842106
495,3237,1011250025,69,C,1884,DAKOTA INC (THE),1,9.5,83,309608,40.7767728,-73.9761519,1011250025.0,2015,0,107,53152583.3845,39863.7026496,POINT (-73.9761519 40.7767728),3730.2168674698796
496,3248,1011280029,94,A,1908,KENILWORTH APARTMENTS INC,1,12.5,36,124867,40.7785044,-73.9747395,1011280029.0,0,0,107,53152583.3845,39863.7026496,POINT (-73.9747395 40.7785044),3468.527777777778
497,3266,1011380053,80,B,1975,TOULAINE OWNERS CORP,1,25.0,245,186737,40.7748747,-73.9832328,1011380053.0,0,0,107,53152583.3845,39863.7026496,POINT (-73.9832328 40.7748747),762.1918367346939
498,3286,1011420048,83,B,1912,DANIELLE APARTMENT CORP,1,9.0,80,57086,40.7771579,-73.9808817,1011420048.0,1989,0,107,53152583.3845,39863.7026496,POINT (-73.9808817 40.7771579),713.575
499,3289,1011427501,13,D,1927,PYTHIAN CONDOMINIUM ASSOCIATION,1,7.0,87,98110,40.7768753,-73.9809973,1011427501.0,1982,1982,107,53152583.3845,39863.7026496,POINT (-73.9809973 40.7768753),1127.7011494252874
500,3295,1011430027,96,A,1913,MIDWEST VENTURES LLC,1,10.0,38,36364,40.7771468,-73.979701,1011430027.0,0,0,107,53152583.3845,39863.7026496,POINT (-73.979701 40.7771468),956.9473684210526
501,3315,1011457501,0,F,1920,74TH STREET PROPERTY OWNER LLC,1,7.0,14,26010,40.7794991,-73.9802636,1011457501.0,2016,2016,107,53152583.3845,39863.7026496,POINT (-73.9802636 40.7794991),1857.857142857143
502,3322,1011470059,65,C,1926,WEST PARK HOUSING CORP,1,9.0,22,28971,40.7807478,-73.9792919,1011470059.0,0,0,107,53152583.3845,39863.7026496,POINT (-73.9792919 40.7807478),1316.8636363636363
503,3328,1011500037,97,A,1925,118 TENANTS CORP,1,14.0,51,99292,40.7819714,-73.9762801,1011500037.0,1988,0,107,53152583.3845,39863.7026496,POINT (-73.9762801 40.7819714),1946.9019607843138
504,3344,1011540101,7,D,1948,NYC HOUSING AUTHORITY,13,13.0,1084,825480,40.77305,-73.9873383,1011540101.0,0,0,107,53152583.3845,39863.7026496,POINT (-73.9873383 40.77305),761.5129151291513
505,3464,1011840028,100,A,1936,5 RIVERSIDE CP,1,19.0,100,127782,40.7807377,-73.9851126,1011840028.0,0,0,107,53152583.3845,39863.7026496,POINT (-73.9851126 40.7807377),1277.82
506,3466,1011840083,54,D,1948,315 APARTMENTS CORP,1,8.0,24,33880,40.7817283,-73.9834405,1011840083.0,1987,0,107,53152583.3845,39863.7026496,POINT (-73.9834405 40.7817283),1411.6666666666667
507,3472,1011850025,86,A,1925,333 WEST END TENANTS CORP,1,16.0,50,100772,40.7823623,-73.9830179,1011850025.0,1985,0,107,53152583.3845,39863.7026496,POINT (-73.9830179 40.7823623),2015.44
508,3508,1011977501,88,A,1924,20 W 84TH ST CONDO,1,9.0,37,46179,40.7842292,-73.9714874,1011977501.0,0,0,107,53152583.3845,39863.7026496,POINT (-73.9714874 40.7842292),1248.081081081081
509,3528,1012010058,77,B,1941,66 W 88 LLC,1,6.0,48,48555,40.7873965,-73.9708794,1012010058.0,0,0,107,53152583.3845,39863.7026496,POINT (-73.9708794 40.7873965),1011.5625
510,3535,1012030033,77,B,1941,295 CPW LLC,1,19.0,136,145476,40.7877854,-73.9679072,1012030033.0,0,0,107,53152583.3845,39863.7026496,POINT (-73.9679072 40.7877854),1069.6764705882354
511,3544,1012060010,87,A,1951,WEST 92 STREET LLC,1,6.0,55,55535,40.7900389,-73.9682059,1012060010.0,0,0,107,53152583.3845,39863.7026496,POINT (-73.9682059 40.7900389),1009.7272727272727
512,3548,1012060029,91,A,1926,322 REALTY CORP.,1,15.0,49,120112,40.7894045,-73.9667869,1012060029.0,0,0,107,53152583.3845,39863.7026496,POINT (-73.9667869 40.7894045),2451.265306122449
513,3555,1012070015,86,A,1920,3793 OWNERS CORP.,1,8.0,32,53478,40.7906152,-73.9675844,1012070015.0,0,0,107,53152583.3845,39863.7026496,POINT (-73.9675844 40.7906152),1671.1875
514,3556,1012070016,90,A,1900,NINE G CO OPERATIVE INC,1,4.0,34,47349,40.7904339,-73.96718,1012070016.0,0,0,107,53152583.3845,39863.7026496,POINT (-73.96718 40.7904339),1392.6176470588234
515,3557,1012070029,93,A,1910,333 CENTRAL PARK W OWNERS CORP,1,12.0,69,163032,40.7901125,-73.9663532,1012070029.0,0,0,107,53152583.3845,39863.7026496,POINT (-73.9663532 40.7901125),2362.782608695652
516,3565,1012090037,85,A,1930,12 W 96TH STREET CORP,1,17.0,69,127289,40.7917015,-73.9654929,1012090037.0,0,0,107,53152583.3845,39863.7026496,POINT (-73.9654929 40.7917015),1844.768115942029
517,3576,1012100037,75,B,1901,COLUMBUS 80 TENANTS CORP,1,8.0,65,40916,40.7826245,-73.9755793,1012100037.0,1986,0,107,53152583.3845,39863.7026496,POINT (-73.9755793 40.7826245),629.4769230769231
518,3591,1012140008,86,A,1912,WESTPROP CORP,1,9.0,36,36512,40.7855942,-73.9755096,1012140008.0,0,0,107,53152583.3845,39863.7026496,POINT (-73.9755096 40.7855942),1014.2222222222222
519,3595,1012150056,90,A,1950,160 WEST 85TH ST OWRS,1,6.0,60,56023,40.7865301,-73.9749856,1012150056.0,1987,0,107,53152583.3845,39863.7026496,POINT (-73.9749856 40.7865301),933.7166666666667
520,3596,1012160016,93,A,1977,131 WEST OWNERS CORP,1,6.0,41,25090,40.786593,-73.9739709,1012160016.0,1970,0,107,53152583.3845,39863.7026496,POINT (-73.9739709 40.786593),611.9512195121952
521,3597,1012160039,67,C,1928,"114 WEST 86TH STREET REALTY, LLC",1,16.5,49,47369,40.7865379,-73.9730284,1012160039.0,0,0,107,53152583.3845,39863.7026496,POINT (-73.9730284 40.7865379),966.7142857142857
522,3600,1012160051,88,A,1929,144 WEST 86TH STREET LLC,1,17.0,67,96546,40.7869608,-73.9740538,1012160051.0,0,0,107,53152583.3845,39863.7026496,POINT (-73.9740538 40.7869608),1440.9850746268658
523,3645,1012240042,10,D,1965,NYC HOUSING AUTHORITY,1,9.0,70,61300,40.7918674,-73.9698301,1012240042.0,1988,0,107,53152583.3845,39863.7026496,POINT (-73.9698301 40.7918674),875.7142857142857
524,3651,1012250055,0,F,1914,160 W 95TH OWNERS INC,1,10.0,37,61800,40.792872,-73.9702305,1012250055.0,1988,0,107,53152583.3845,39863.7026496,POINT (-73.9702305 40.792872),1670.2702702702702
525,3660,1012280001,97,A,1916,420 WEST END AVE. CO,1,13.0,38,85942,40.7850544,-73.9802511,1012280001.0,0,0,107,53152583.3845,39863.7026496,POINT (-73.9802511 40.7850544),2261.6315789473683
526,3667,1012290006,56,C,1900,BIG APPLE CORPORATION,1,9.0,36,41137,40.7855923,-73.9794168,1012290006.0,1981,0,107,53152583.3845,39863.7026496,POINT (-73.9794168 40.7855923),1142.6944444444443
527,3704,1012350061,96,A,1912,CENTRAL HUDSON ASSOCIATES LLC,1,12.0,76,136843,40.7898461,-73.9766781,1012350061.0,0,0,107,53152583.3845,39863.7026496,POINT (-73.9766781 40.7898461),1800.5657894736842
